ID,City,Country Code,Country,Date,Cloudiness,Humidity,Lat,Lng,Max Temp,Wind Speed
0,albany,US,United States of America,1555618352,90,66,42.65,-73.75,285.93,6.7
1,chuy,UY,Uruguay,1555618604,83,63,-33.69,-53.46,295.3,2.29
2,mataura,NZ,Norway,1555618606,0,70,-46.19,168.86,282.6,2.62
3,belaya gora,RU,Romania,1555618607,84,79,68.54,146.19,259.1,5.28
4,alenquer,BR,Bouvet Island,1555617600,40,70,-1.95,-54.74,304.15,5.1
5,punta arenas,CL,China,1555618399,75,75,-53.16,-70.91,280.15,3.1
6,matagami,NG,New Zealand,1555618611,100,44,9.67,8.4,302.7,1.21
8,vanimo,PG,Peru,1555618614,100,78,-2.67,141.3,299.9,3.07
9,jamestown,au,Aruba,1555618347,18,42,-33.21,138.6,292.7,4.78
10,iralaya,HN,Heard and Mcdonald Islands,1555618617,24,47,15,-83.23,304.2,4.02
11,makakilo city,US,United States of America,1555618533,40,54,21.35,-158.09,301.15,3.6
12,hattiesburg,US,United States of America,1555618238,90,94,31.33,-89.29,297.15,4.1
13,coihaique,CL,China,1555617600,40,54,-45.58,-72.07,286.15,3.1
14,volkhov,RU,Romania,1555618399,7,95,59.92,32.34,272.04,0.79
15,gat,SN,Slovenia,1555615800,57,73,14.69,-16.54,294.15,9.3
19,san cristobal,EC,Dominican Republic,1555617600,75,64,-0.39,-78.55,294.15,8.2
22,coos bay,US,United States of America,1555618236,1,68,43.37,-124.22,297.04,3.6
23,saskylakh,RU,Romania,1555618635,23,80,71.97,114.09,250.9,2.44
24,celestun,MX,Mozambique,1555618636,0,71,20.87,-90.4,302,6.57
25,hilo,US,United States of America,1555618290,40,69,19.71,-155.08,297.59,3.6
26,kysyl-syr,RU,Romania,1555618638,81,90,63.9,122.77,261.1,3.55
27,walvis bay,NA,Myanmar,1555617728,0,76,-22.95,14.51,286.48,2.6
28,tuatapere,NZ,Norway,1555618641,17,76,-46.13,167.69,285.5,6.88
29,tiznit,MA,Luxembourg,1555618536,0,74,29.7,-9.73,290,15.99
30,hobart,au,Aruba,1555618455,20,87,-42.88,147.33,279.26,4.6
31,baijiantan,CN,China,1555618637,28,39,45.63,85.18,283.7,2.48
32,rikitea,PF,Peru,1555618646,36,74,-23.12,-134.97,299.1,1.57
33,tongzi,CN,China,1555618647,100,62,28.78,105.09,298.4,2.9
34,provideniya,RU,Romania,1555618648,0,59,64.42,-173.23,263.2,5.4
35,mareeba,au,Aruba,1555618399,75,83,-16.99,145.42,296.15,5.7
36,georgetown,GY,Guyana,1555617600,75,79,6.8,-58.16,302.15,7.2
37,varberg,SE,Saudi Arabia,1555618582,0,70,57.11,12.25,283.15,2.6
38,clyde river,CA,Burundi,1555614000,20,70,70.47,-68.59,254.15,2.6
39,tuktoyaktuk,CA,Burundi,1555614000,75,78,69.44,-133.03,261.15,5.7
40,qaanaaq,GL,Gibraltar,1555618656,100,86,77.48,-69.36,249.4,1.73
41,hoyanger,NO,Niue,1555618565,0,61,61.22,6.07,283.71,4.1
42,cajabamba,EC,Dominican Republic,1555617600,40,46,-1.7,-78.77,296.15,5.1
43,hermanus,ZA,Yemen,1555618604,0,79,-34.42,19.24,291.48,0.89
44,caravelas,BR,Bouvet Island,1555618662,61,81,-17.73,-39.27,300.8,2.69
45,hithadhoo,MV,Mozambique,1555618663,100,73,-0.6,73.08,302,5.22
46,souillac,FR,Finland,1555618369,0,63,45.6,-0.6,292.15,0.5
47,flin flon,CA,Burundi,1555614000,20,41,54.77,-101.88,287.15,6.7
48,padang,ID,Iceland,1555618667,100,73,-0.92,100.36,301.7,3.57
49,talnakh,RU,Romania,1555617600,20,75,69.49,88.39,247.15,4
50,abu samrah,SY,Switzerland,1555618670,100,75,35.3,37.18,285.4,2.29
52,yellowknife,CA,Burundi,1555614177,75,80,62.45,-114.38,275.15,5.1
54,lazaro cardenas,MX,Mozambique,1555618562,20,25,28.39,-105.62,299.26,5.1
55,airai,TL,Timor-Leste,1555618676,0,68,-8.93,125.41,295.9,2.72
56,luderitz,NA,Myanmar,1555614000,0,87,-26.65,15.16,285.15,0.5
57,inayawan,PH,Peru,1555614000,20,83,10.27,123.86,299.15,1.54
58,pirgos,GR,Gibraltar,1555618596,20,55,35.12,25.72,289.15,7.7
59,arraias,BR,Bouvet Island,1555618682,65,74,-12.93,-46.94,298.9,0.63
60,los llanos de aridane,ES,Eritrea,1555618619,20,72,28.66,-17.92,291.15,6.7
61,esperance,TT,Trinidad and Tobago,1555618590,20,62,10.24,-61.45,303.71,7.7
62,charters towers,au,Aruba,1555618686,0,88,-20.07,146.27,291.7,3.69
63,kawalu,ID,Iceland,1555618687,100,94,-7.38,108.21,295.6,0.88
64,chokurdakh,RU,Romania,1555618689,100,88,70.62,147.9,258.5,9.71
65,new norfolk,au,Aruba,1555618635,20,87,-42.78,147.06,279.26,4.6
66,port hardy,CA,Burundi,1555615260,90,93,50.7,-127.42,282.15,2.6
67,bandar,ID,Iceland,1555618692,100,97,-4.2,104.14,296.6,0.92
68,mwanza,TZ,Tuvalu,1555618694,1,75,-2.52,32.9,295.5,3.23
69,busselton,au,Aruba,1555618554,68,96,-33.64,115.35,284.26,14.17
70,ushuaia,AR,Antigua and Barbuda,1555617600,40,74,-54.81,-68.31,276.15,6.2
71,tiksi,RU,Romania,1555618697,80,90,71.64,128.87,260.9,4.7
72,port lincoln,au,Aruba,1555618699,100,71,-34.72,135.86,294.1,7.57
73,avarua,CK,China,1555617600,100,100,-21.21,-159.78,298.15,1
74,ancud,CL,China,1555617600,0,67,-41.87,-73.83,287.15,4.6
76,atuona,PF,Peru,1555618704,48,75,-9.8,-139.03,301.8,4.62
77,college,US,United States of America,1555618446,90,79,64.86,-147.8,271.48,3.6
78,belle fourche,US,United States of America,1555618457,69,34,44.67,-103.85,286.48,10.8
79,pingliang,CN,China,1555618707,20,94,35.54,106.68,285.2,2.21
80,necochea,AR,Antigua and Barbuda,1555617689,100,41,-38.55,-58.74,301.48,2.24
81,honiara,SB,Saudi Arabia,1555617600,40,94,-9.43,159.96,297.15,1
82,scarborough,GB,Gambia,1555618526,77,93,54.28,-0.41,285.15,2.6
83,pisco,PE,Paraguay,1555618612,0,30,-13.71,-76.2,298.71,3.1
84,san quintin,PH,Peru,1555618714,0,80,17.54,120.52,298.6,0.99
85,aksu,KZ,Kyrgyzstan,1555617600,0,92,52.04,76.93,264.15,2
86,nikolskoye,RU,Romania,1555618537,0,55,59.7,30.79,277.59,2
87,mehamn,NO,Niue,1555617000,75,80,71.03,27.85,277.15,6.2
88,ribeira grande,PT,Portugal,1555615800,40,93,38.52,-28.7,290.15,2.6
89,komsomolskiy,RU,Romania,1555618720,100,94,67.55,63.78,271,5.39
90,champerico,MX,Mozambique,1555617000,40,30,16.38,-93.6,308.15,3.1
91,chumikan,RU,Romania,1555618723,100,85,54.72,135.31,267.5,4.16
93,coquimbo,CL,China,1555617600,75,67,-29.95,-71.34,290.15,5.1
94,katsuura,JP,Jordan,1555614000,40,82,33.93,134.5,286.15,1.5
95,labuan,BN,Bhutan,1555617600,75,89,5.28,115.24,302.15,0.5
96,tasiilaq,GL,Gibraltar,1555617000,75,80,65.61,-37.64,275.15,10.8
97,mantua,IT,Israel,1555618576,0,54,45.16,10.79,290.15,2.1
98,nome,US,United States of America,1555618711,75,73,30.04,-94.42,297.59,3.6
99,dikson,RU,Romania,1555618733,42,83,73.51,80.55,252.2,2.91
100,puerto ayora,EC,Dominican Republic,1555617697,40,70,-0.74,-90.35,303.15,6.7
101,verkhoyansk,RU,Romania,1555618735,0,85,67.55,133.39,257.2,1.58
102,santa cruz de la palma,ES,Eritrea,1555618619,20,72,28.68,-17.76,291.15,6.7
103,yulara,au,Aruba,1555617600,95,32,-25.24,130.99,292.15,2.1
105,cedar city,US,United States of America,1555618584,1,39,37.68,-113.06,290.15,2.1
106,marawi,PH,Peru,1555618504,54,88,8,124.29,297.04,1.79
107,bireun,ID,Iceland,1555618572,67,85,5.2,96.7,294.2,1.4
108,iqaluit,CA,Burundi,1555618374,90,85,63.75,-68.52,269.15,9.8
109,acapulco,MX,Mozambique,1555616640,5,74,16.86,-99.88,301.15,7.2
110,nyazepetrovsk,RU,Romania,1555618747,3,62,56.06,59.6,269.4,0.82
111,vardo,US,United States of America,1555618739,1,53,39.62,-77.74,298.15,6.2
113,kavieng,PG,Peru,1555618751,100,78,-2.57,150.8,300.5,1.74
114,mount gambier,au,Aruba,1555614000,0,93,-37.83,140.78,279.15,3.1
115,arraial do cabo,BR,Bouvet Island,1555617600,40,78,-22.97,-42.02,301.15,9.3
116,kodiak,US,United States of America,1555618706,75,44,39.95,-94.76,290.93,7.7
117,cidreira,BR,Bouvet Island,1555618756,78,77,-30.17,-50.22,294.7,2.23
118,saint-philippe,CA,Burundi,1555618712,90,44,45.36,-73.48,290.37,9.3
119,neiafu,TO,Timor-Leste,1555617600,75,83,-18.65,-173.98,299.15,2.1
120,ostrovnoy,RU,Romania,1555618759,100,91,68.05,39.51,273,4.72
121,lorengau,PG,Peru,1555618761,100,90,-2.02,147.27,298.5,0.84
123,morrope,PE,Paraguay,1555617600,0,57,-6.54,-80.02,300.15,9.3
124,kahului,US,United States of America,1555618493,40,54,20.89,-156.47,301.15,7.2
125,bluff,au,Aruba,1555618766,0,82,-23.58,149.07,290.9,4.79
126,ende,ID,Iceland,1555618767,0,73,-8.84,121.65,300.5,1.03
127,sicuani,PE,Paraguay,1555618768,100,74,-14.27,-71.23,283.1,3.64
128,killybegs,IE,Iceland,1555618624,51,72,54.63,-8.45,289.15,4.1
129,belen,TR,Tonga,1555617000,75,67,36.49,36.19,287.15,2.6
130,camacha,PT,Portugal,1555615800,40,67,33.08,-16.33,290.15,8.7
131,bulandshahr,IN,India,1555618774,4,37,28.41,77.85,299.3,2.13
132,east london,ZA,Yemen,1555614000,75,88,-33.02,27.91,293.15,5.1
133,roma,IT,Israel,1555618748,40,54,41.89,12.48,290.37,1.5
134,comodoro rivadavia,AR,Antigua and Barbuda,1555617600,75,30,-45.87,-67.48,294.15,6.2
135,fort pierce,US,United States of America,1555618755,1,62,27.45,-80.33,303.15,10.8
136,isangel,VU,"Virgin Islands, US",1555614000,40,78,-19.55,169.27,299.15,5.1
137,khatanga,RU,Romania,1555618782,89,100,71.98,102.47,249,0.68
138,whitehorse,CA,Burundi,1555618503,90,52,60.72,-135.06,279.82,8.2
140,linjiang,CN,China,1555618786,99,36,41.81,126.91,272.5,0.87
141,mahebourg,MU,Mozambique,1555618743,75,83,-20.41,57.7,299.15,2.6
142,juegang,CN,China,1555618772,0,89,32.31,121.18,289.82,0.45
143,noumea,NC,Nauru,1555617600,100,83,-22.28,166.46,296.15,1
144,bathsheba,BB,Barbados,1555617600,40,66,13.22,-59.52,302.15,8.7
145,tibiri,NE,Nauru,1555618793,0,6,13.59,7.06,302.5,3.82
146,khaniotis,GR,Gibraltar,1555618211,0,100,40,23.58,283.15,2.64
147,severo-kurilsk,RU,Romania,1555618797,77,85,50.68,156.12,273.4,10.13
148,pevek,RU,Romania,1555618798,66,76,69.7,170.27,262.7,4.62
149,kapaa,US,United States of America,1555618695,40,61,22.08,-159.32,300.15,6.7
150,kailua,US,United States of America,1555618763,40,69,21.39,-157.74,301.15,4.6
151,dhidhdhoo,MV,Mozambique,1555618546,100,73,6.88,73.1,302.9,2.32
152,alice springs,au,Aruba,1555617600,0,37,-23.7,133.88,286.15,2.1
153,boa viagem,BR,Bouvet Island,1555618805,100,95,-5.13,-39.73,295.1,2.74
154,beringovskiy,RU,Romania,1555618806,0,82,63.05,179.32,263,1.14
155,grindavik,IS,Ireland,1555617600,90,100,63.84,-22.43,282.04,11.8
156,flinders,au,Aruba,1555618806,90,88,-34.58,150.85,293.15,0.9
157,rameshki,RU,Romania,1555618810,0,85,57.35,36.05,275.3,2.25
158,vaini,IN,India,1555618812,0,67,15.34,74.49,297,0.71
159,avera,US,United States of America,1555618806,40,47,33.19,-82.53,302.04,3.6
160,novyye gorki,RU,Romania,1555618815,1,60,56.73,41.06,275.9,1.37
161,kaitangata,NZ,Norway,1555618816,0,74,-46.28,169.85,282.7,1.6
162,salalah,OM,Norway,1555617000,40,69,17.01,54.1,300.15,2.6
164,wajima,JP,Jordan,1555618820,99,69,37.4,136.9,284.1,9.32
165,veraval,FR,Finland,1555618818,0,59,49.65,0.71,290.15,3.6
166,butaritari,KI,Kenya,1555618823,100,80,3.07,172.79,301.4,7.13
168,sabha,LY,Luxembourg,1555618825,0,11,27.03,14.43,301,3.77
169,deniliquin,au,Aruba,1555618604,9,79,-35.53,144.96,281.48,0.89
170,arlit,NE,Nauru,1555618827,0,5,18.74,7.39,301.2,2.53
171,mar del plata,AR,Antigua and Barbuda,1555618829,33,34,-46.43,-67.52,290.9,8.82
172,ossora,RU,Romania,1555618830,86,85,59.24,163.07,271.8,0.85
173,san carlos de bariloche,AR,Antigua and Barbuda,1555617600,0,25,-41.13,-71.31,291.15,9.8
174,quatre cocos,MU,Mozambique,1555618743,75,83,-20.21,57.76,299.15,2.6
175,cape town,ZA,Yemen,1555618604,0,82,-33.93,18.42,292.59,1
176,lompoc,US,United States of America,1555618631,40,44,34.64,-120.46,300.93,4.1
177,sitka,US,United States of America,1555618573,29,29,37.17,-99.65,292.04,12.07
178,plettenberg bay,ZA,Yemen,1555618838,0,59,-34.05,23.37,289.9,1.59
180,camocim,BR,Bouvet Island,1555618841,100,88,-2.9,-40.84,298.7,2.11
181,blackfoot,US,United States of America,1555618824,1,38,43.19,-112.35,289.82,8.2
182,lavrentiya,RU,Romania,1555618843,0,81,65.58,-170.99,256.6,4.45
183,faya,SA,Rwanda,1555614000,0,77,18.39,42.45,294.15,3.6
184,okhotsk,RU,Romania,1555618846,100,86,59.36,143.24,271.4,3.95
185,mecca,SA,Rwanda,1555618727,0,40,21.43,39.83,298.3,4.78
186,havre-saint-pierre,CA,Burundi,1555614000,20,52,50.23,-63.6,279.15,2.6
187,karratha,au,Aruba,1555618850,100,44,-20.74,116.85,300.8,6.69
188,guerrero negro,MX,Mozambique,1555618851,100,58,27.97,-114.04,292.3,4.3
189,coahuayana,MX,Mozambique,1555618852,0,9,18.62,-100.35,313.5,2.24
190,vila franca do campo,PT,Portugal,1555615800,40,93,37.72,-25.43,289.15,3.1
191,myskhako,RU,Romania,1555615800,75,93,44.66,37.76,278.15,10
192,skjervoy,NO,Niue,1555615200,75,75,70.03,20.97,278.15,6.2
193,tefe,BR,Bouvet Island,1555617600,20,83,-3.35,-64.71,301.15,1
195,kiama,au,Aruba,1555618664,90,88,-34.67,150.86,293.15,1.38
196,paamiut,GL,Gibraltar,1555618861,0,60,61.99,-49.67,270.4,20.4
197,bredasdorp,ZA,Yemen,1555618508,0,93,-34.53,20.04,290.93,0.5
198,baruun-urt,MN,"Micronesia, Federated States of",1555618864,0,33,46.68,113.28,275.3,4.88
199,huilong,CN,China,1555618865,4,96,28.89,110.18,291.8,1.67
200,latur,IN,India,1555618866,0,17,18.4,76.56,303.2,4.18
201,torbay,CA,Burundi,1555618774,90,71,47.66,-52.73,274.26,8.7
202,copiapo,CL,China,1555617600,20,56,-27.37,-70.33,293.15,4.1
203,bonavista,CA,Burundi,1555618553,24,77,48.65,-53.11,273.15,4.02
204,ola,RU,Romania,1555618871,100,81,59.58,151.3,272,4.11
206,carutapera,BR,Bouvet Island,1555618874,77,87,-1.2,-46.02,299.6,3
209,hasaki,JP,Jordan,1555618623,75,87,35.73,140.83,287.15,3.1
210,pozo colorado,PY,Puerto Rico,1555618878,93,59,-23.49,-58.8,302.5,1.81
211,zhezkazgan,KZ,Kyrgyzstan,1555618880,100,65,47.8,67.71,276,10.37
212,hollabrunn,AT,Aruba,1555618867,0,54,48.56,16.08,286.15,1
213,diplo,PK,Pitcairn,1555618883,0,39,24.47,69.59,301.4,5.12
214,tazovskiy,RU,Romania,1555618884,67,83,67.47,78.7,251.6,1.64
215,murdochville,CA,Burundi,1555618886,100,79,48.96,-65.49,276.2,5.14
216,san remigio,PH,Peru,1555618887,38,66,10.83,122.09,300.5,3.1
217,roebourne,au,Aruba,1555618888,100,41,-20.77,117.15,301.2,7.17
218,romny,UA,Tuvalu,1555618889,100,74,50.74,33.49,281.6,0.61
220,kalmunai,LK,Lithuania,1555618892,28,93,7.42,81.82,297.8,1.7
221,gizo,IL,Iceland,1555618835,20,67,31.8,34.94,290.15,3.6
222,port macquarie,au,Aruba,1555618505,75,100,-31.43,152.91,290.37,2.6
223,batticaloa,LK,Lithuania,1555618895,28,93,7.71,81.69,297.8,1.7
224,raudeberg,NO,Niue,1555618506,0,61,61.99,5.14,288.15,4.1
225,victoria,BN,Bhutan,1555617600,75,89,5.28,115.24,302.15,0.5
226,batak,BG,Bermuda,1555618892,90,100,43.35,25.34,282.15,2.6
227,thompson,CA,Burundi,1555616220,75,37,55.74,-97.86,286.15,2.1
228,valera,VE,Vanuatu,1555618903,100,57,9.31,-70.61,304.7,4.59
230,sinnamary,GF,Germany,1555618905,37,81,5.38,-52.96,300.6,7.16
231,ixtapa,MX,Mozambique,1555618803,5,54,20.71,-105.21,301.15,5.1
232,longyearbyen,NO,Niue,1555617000,75,95,78.22,15.63,276.15,12.3
233,vyartsilya,RU,Romania,1555618909,58,94,62.18,30.69,274.9,1.02
235,el bagre,CO,China,1555618911,100,71,7.6,-74.8,302,0.83
236,oistins,BB,Barbados,1555617600,40,66,13.07,-59.53,302.15,8.7
237,lebu,ET,Estonia,1555617600,40,59,8.96,38.73,291.15,1
238,san roque,EC,Dominican Republic,1555617600,75,64,0.3,-78.23,294.15,8.2
239,bambous virieux,MU,Mozambique,1555618743,75,83,-20.34,57.76,299.15,2.6
240,santiago del estero,AR,Antigua and Barbuda,1555618899,58,65,-27.8,-64.26,300.4,3.79
241,tiszakecske,HU,Honduras,1555618816,0,62,46.93,20.1,286.48,1
242,husavik,CA,Burundi,1555618806,1,27,50.56,-96.99,288.15,1.29
243,cabra,ES,Eritrea,1555618409,0,93,37.47,-4.43,284.15,1.5
244,bull savanna,JM,Jersey,1555618923,23,71,17.89,-77.59,301.4,7.48
246,faanui,PF,Peru,1555618926,68,77,-16.48,-151.75,302,5.33
247,atambua,ID,Iceland,1555618927,0,65,-9.11,124.89,300.9,4.83
248,touros,BR,Bouvet Island,1555617600,20,70,-5.2,-35.46,303.15,5.7
249,bay roberts,CA,Burundi,1555618774,90,58,47.58,-53.28,274.26,8.7
250,shubarkuduk,KZ,Kyrgyzstan,1555618931,44,43,49.15,56.49,273.3,5.53
251,yumen,CN,China,1555618932,100,19,40.29,97.04,288,7.13
252,sable-sur-sarthe,FR,Finland,1555618927,0,55,47.84,-0.33,292.15,2.6
253,jining,CN,China,1555618935,41,42,35.41,116.58,287.3,4.29
254,astana,KZ,Kyrgyzstan,1555617600,0,58,51.13,71.43,269.15,9
255,hirado,JP,Jordan,1555618398,0,93,33.32,129.49,288.71,2.1
256,totness,US,United States of America,1555618883,40,45,33.74,-80.8,301.15,4.1
257,etawah,IN,India,1555618940,0,38,26.78,79.02,299.3,2.39
258,saint george,GR,Gibraltar,1555613400,40,76,39.45,22.34,284.15,1.44
259,kirakira,SB,Saudi Arabia,1555618942,98,78,-10.46,161.92,300.4,2.17
260,tura,IN,India,1555618944,0,54,25.52,90.21,297.5,2.51
261,lubao,PH,Peru,1555618706,75,83,14.94,120.6,301.48,1
262,nalut,LY,Luxembourg,1555618946,0,35,31.86,10.98,295.6,6.28
263,coolum beach,au,Aruba,1555618806,16,94,-26.53,153.09,292.04,0.89
264,waipawa,NZ,Norway,1555618948,0,65,-39.94,176.59,284.9,0.79
265,dong hoi,VN,"Virgin Islands, US",1555618950,0,59,17.48,106.6,302.8,3.39
266,nalundan,PH,Peru,1555618951,29,93,9.75,123.07,294.6,2.13
267,cabo san lucas,MX,Mozambique,1555618717,75,44,22.89,-109.91,303.15,2.1
268,alyangula,au,Aruba,1555614000,90,94,-13.85,136.42,297.15,5.34
269,castro,CL,China,1555617600,0,67,-42.48,-73.76,287.15,4.6
270,parati,BR,Bouvet Island,1555617600,75,58,-20.51,-54.63,302.15,3.1
271,upernavik,GL,Gibraltar,1555618957,32,92,72.79,-56.15,254.3,3.9
272,barrow,AR,Antigua and Barbuda,1555618929,99,52,-38.31,-60.23,297.6,2.64
273,cherskiy,RU,Romania,1555618960,78,91,68.75,161.3,269,7.72
274,namibe,AO,Antigua and Barbuda,1555618961,59,74,-15.19,12.15,296.2,4.67
275,salta,AR,Antigua and Barbuda,1555617600,40,69,-24.79,-65.41,297.15,4.1
276,katwijk,NL,Niue,1555618961,0,42,52.2,4.41,291.48,6.2
277,kutum,SD,Saudi Arabia,1555618965,30,12,14.2,24.66,298.9,5.4
278,posse,BR,Bouvet Island,1555618966,72,76,-14.08,-46.36,298.6,0.53
280,bilibino,RU,Romania,1555618969,82,91,68.06,166.44,263.7,5.68
282,fukue,JP,Jordan,1555618906,75,87,35.03,136.69,287.15,1.5
283,angoche,MZ,Myanmar,1555618929,10,88,-16.23,39.91,298.6,2.43
284,dahod,IN,India,1555618973,0,27,22.84,74.26,301.2,3.76
286,bethel,US,United States of America,1555617360,40,45,60.79,-161.76,271.15,4.6
287,nanortalik,GL,Gibraltar,1555618977,21,75,60.14,-45.24,273.4,1.77
288,krasnyy yar,RU,Romania,1555618978,37,44,50.7,44.73,274,2.62
290,yinchuan,CN,China,1555618972,65,18,38.48,106.21,289.26,0.45
292,inuvik,CA,Burundi,1555617600,75,62,68.36,-133.71,268.15,3.6
293,saldanha,PT,Portugal,1555618957,99,71,41.42,-6.55,284.5,2.26
294,karatuzskoye,RU,Romania,1555618923,100,39,53.61,92.87,268.5,10.27
295,maniitsoq,GL,Gibraltar,1555618987,0,59,65.42,-52.9,267,5.89
296,palmer,US,United States of America,1555618823,90,93,61.6,-149.11,276.48,3.1
297,dalby,au,Aruba,1555617958,0,87,-27.18,151.26,287.15,0.5
298,norman wells,CA,Burundi,1555614000,90,90,65.28,-126.83,273.15,2.6
300,bilma,NE,Nauru,1555618993,0,10,18.69,12.92,298,2.26
301,piacabucu,BR,Bouvet Island,1555618995,100,79,-10.41,-36.43,300.4,3.39
302,tilichiki,RU,Romania,1555618996,100,88,60.47,166.1,271.2,1.93
304,sorong,ID,Iceland,1555618998,96,95,-0.86,131.25,297.3,1.11
305,opuwo,NA,Myanmar,1555618999,49,37,-18.06,13.84,297.8,1.92
307,nampula,MZ,Myanmar,1555619002,78,99,-15.12,39.26,294,2.32
308,port-gentil,GA,French Southern Territories,1555617600,20,94,-0.72,8.78,299.15,2.1
309,bereda,ES,Eritrea,1555618739,20,71,43.27,-7.54,287.15,1.5
310,santa vitoria do palmar,BR,Bouvet Island,1555619006,92,65,-33.52,-53.37,294,2.15
311,sundarnagar,IN,India,1555618993,1,46,31.53,76.88,289.5,1.67
312,sarny,UA,Tuvalu,1555619008,0,62,51.32,26.62,282.6,4.26
313,kouango,CF,Central African Republic,1555619010,70,53,4.99,19.98,301.2,1.95
314,hualmay,PE,Paraguay,1555619011,100,92,-11.1,-77.61,293.5,6.93
315,port alfred,ZA,Yemen,1555618913,28,92,-33.59,26.89,292.04,3.13
316,ust-tsilma,RU,Romania,1555618747,100,90,65.44,52.15,274.2,4.12
317,codrington,au,Aruba,1555618800,40,93,-28.95,153.24,294.15,2.8
318,mae hong son,MM,"Micronesia, Federated States of",1555619016,0,43,19.3,97.96,298.5,0.84
319,huarmey,PE,Paraguay,1555619017,100,91,-10.07,-78.15,293.5,7.69
320,fortuna,ES,Eritrea,1555619018,75,77,38.18,-1.13,289.15,2.6
321,evensk,RU,Romania,1555619020,98,85,61.92,159.24,271,1.22
324,puerto escondido,MX,Mozambique,1555616700,5,74,15.86,-97.07,301.15,7.2
325,maceio,BR,Bouvet Island,1555617600,0,69,-9.67,-35.74,301.15,5.1
327,henties bay,NA,Myanmar,1555617728,0,91,-22.12,14.28,286.48,1.34
328,batagay-alyta,RU,Romania,1555619029,5,69,67.8,130.41,252.5,1.85
329,lac du bonnet,CA,Burundi,1555618801,0,27,50.25,-96.06,288.15,2.19
331,tromso,NO,Niue,1555617000,75,75,69.65,18.96,277.15,6.2
332,pangnirtung,CA,Burundi,1555617600,75,61,66.15,-65.72,262.15,1
333,storforshei,NO,Niue,1555618810,75,93,66.4,14.52,277.59,2.6
334,gigmoto,PH,Peru,1555619036,6,80,13.78,124.39,300.8,4.42
335,zhanakorgan,KZ,Kyrgyzstan,1555619037,20,53,43.91,67.25,293.3,5.33
336,fort saint james,CA,Burundi,1555619039,100,61,54.43,-124.25,281.6,2.89
337,sao manuel,BR,Bouvet Island,1555618550,0,30,-22.73,-48.57,303.15,3.1
338,senftenberg,DE,Czech Republic,1555618930,0,44,51.52,14,287.15,4.1
339,geraldton,CA,Burundi,1555617600,75,65,49.72,-86.95,280.15,4.1
341,pangai,TO,Timor-Leste,1555617600,75,83,-19.8,-174.35,299.15,7.7
342,tiarei,PF,Peru,1555618995,40,62,-17.53,-149.33,304.15,4.6
343,frontera,MX,Mozambique,1555616400,5,44,18.53,-92.64,308.15,5.7
344,anadyr,RU,Romania,1555618999,0,71,64.73,177.51,262.04,1
345,yining,CN,China,1555619050,1,94,29.04,114.56,291.9,0.76
346,te anau,NZ,Norway,1555619051,91,86,-45.41,167.72,281.4,2.31
347,tokomaru,NZ,Norway,1555618995,0,90,-40.47,175.51,282.59,0.89
348,rocha,UY,Uruguay,1555618856,98,67,-34.48,-54.34,292.2,1.27
349,grand baie,MU,Mozambique,1555619042,75,83,-20.02,57.58,299.15,2.6
350,mushie,CD,Cayman Islands,1555619056,95,72,-3.02,16.92,299.6,1.41
351,novoagansk,RU,Romania,1555618869,100,94,61.94,76.66,262.8,3.38
352,chunhuhub,MX,Mozambique,1555619058,0,38,19.59,-88.59,307.7,3.63
353,tyrma,RU,Romania,1555619060,100,80,50.04,132.17,269.6,5.58
355,hongjiang,CN,China,1555619063,69,98,27.21,109.83,291.7,1.64
357,lagoa,PT,Portugal,1555618949,20,82,37.14,-8.45,288.15,3.6
358,sept-iles,CA,Burundi,1555618570,90,69,50.2,-66.38,276.48,2.6
359,santa cruz del sur,CU,Croatia,1555619068,0,29,20.71,-78,307.1,2.92
360,gavle,SE,Saudi Arabia,1555618628,47,62,60.67,17.14,279.82,1.34
361,twin falls,US,United States of America,1555618526,1,36,42.57,-114.46,293.71,4.6
362,tigil,RU,Romania,1555619071,97,76,57.8,158.67,274.8,3.14
363,mathathane,BW,Burundi,1555619073,0,45,-22.27,28.75,296.4,5.17
364,rawson,AR,Antigua and Barbuda,1555618963,0,31,-43.3,-65.11,291.4,7.67
365,haines junction,CA,Burundi,1555618997,96,70,60.75,-137.51,273.7,4.08
367,parsabad,AZ,austria,1555617600,75,81,39.65,47.92,282.15,11.8
368,aksarka,RU,Romania,1555619079,100,89,66.56,67.8,269.1,4.69
369,ahipara,NZ,Norway,1555619080,19,70,-35.17,173.16,291,6.2
370,sobolevo,RU,Romania,1555619081,0,65,54.43,31.9,278.6,4.62
371,liuhe,CN,China,1555619082,100,27,42.28,125.73,275.8,2.46
372,makat,KZ,Kyrgyzstan,1555619084,2,58,47.65,53.35,274.5,3.83
373,liverpool,GB,Gambia,1555618835,20,58,53.41,-2.98,289.26,4.6
374,ugoofaaru,MV,Mozambique,1555619086,100,74,5.67,73,301.7,3.12
375,skeldon,GY,Guyana,1555619088,100,78,5.88,-57.13,300.4,3.09
376,carnarvon,ZA,Yemen,1555619089,0,14,-30.97,22.13,289.7,1.53
377,yeppoon,au,Aruba,1555615800,7,82,-23.13,150.74,292.15,1.5
378,saint-augustin,FR,Finland,1555619089,0,55,44.83,-0.61,290.15,2.1
379,kataysk,RU,Romania,1555619092,21,65,56.29,62.58,271,2.14
380,nizhniy tsasuchey,RU,Romania,1555619061,0,38,50.52,115.13,274.5,5.04
381,presidencia roque saenz pena,AR,Antigua and Barbuda,1555619069,81,54,-26.79,-60.44,301.3,1.6
382,shaowu,CN,China,1555619097,100,96,27.34,117.49,291.6,1.97
383,meridian,US,United States of America,1555617360,75,61,32.36,-88.7,300.15,4.1
384,zaysan,KZ,Kyrgyzstan,1555618888,51,61,47.47,84.87,270.1,3.38
385,preobrazheniye,RU,Romania,1555619100,0,44,42.9,133.91,271.8,2.38
386,blatec,MK,"Micronesia, Federated States of",1555619101,6,90,41.84,22.58,276.6,2.95
387,matamoros,US,United States of America,1555618826,1,27,25.87,-97.51,305.15,9.8
388,eureka,US,United States of America,1555619015,90,93,40.8,-124.16,298.15,3.1
390,kitgum,UG,Tuvalu,1555619107,14,59,3.3,32.88,296.2,1.36
391,shimanovsk,RU,Romania,1555619108,0,40,52,127.67,268.8,5.98
392,balakhta,RU,Romania,1555619110,100,57,55.38,91.62,267.3,11.12
393,banda aceh,ID,Iceland,1555619111,100,71,5.56,95.32,302.6,3.42
394,dongfeng,CN,China,1555619113,86,27,42.67,125.53,275.1,3.08
395,phonhong,LA,Kyrgyzstan,1555619114,0,59,18.5,102.42,299,0.69
396,nauta,PE,Paraguay,1555619115,100,92,-4.51,-73.58,300.8,1.64
397,abu zabad,SD,Saudi Arabia,1555619116,5,8,12.35,29.25,303.1,8.79
398,deder,ET,Estonia,1555619118,19,47,9.31,41.44,298.9,2.86
399,praia da vitoria,PT,Portugal,1555618584,40,72,38.73,-27.07,293.15,3.73
400,arman,RU,Romania,1555619120,95,85,59.7,150.17,268.7,2.14
402,port blair,IN,India,1555619123,78,64,11.67,92.75,302.7,1.86
403,riberalta,BO,Bhutan,1555614000,75,55,-11,-66.08,306.15,3.1
404,eseka,CM,China,1555619125,100,96,3.65,10.77,297.3,1.3
405,barguzin,RU,Romania,1555619126,97,65,53.62,109.63,272.1,1.51
406,poum,MK,"Micronesia, Federated States of",1555618993,1,81,41.28,20.71,277.8,2.3
407,constitucion,MX,Mozambique,1555618817,5,9,23.99,-104.67,295.15,1
408,mackenzie,CA,Burundi,1555617600,40,43,55.34,-123.09,284.15,7.2
410,klaksvik,FO,Finland,1555617000,54,81,62.23,-6.59,282.15,5.7
411,tuy hoa,VN,"Virgin Islands, US",1555619134,28,84,13.08,109.3,297.8,1.06
412,homer,US,United States of America,1555619092,90,86,59.64,-151.54,276.48,5.7
413,burnie,au,Aruba,1555618938,0,74,-41.05,145.91,280.93,3.13
415,lagunillas,VE,Vanuatu,1555619139,100,79,8.5,-71.39,295.3,1.85
416,kropotkin,RU,Romania,1555618516,100,52,45.43,40.58,280.37,6.1
417,garoua,CM,China,1555619142,61,11,9.31,13.39,310.3,1.7
418,tessalit,ML,"Micronesia, Federated States of",1555619026,0,4,20.2,1.01,304.9,3.42
419,lata,IN,India,1555618989,48,71,30.78,78.62,265.8,4.16
420,sandorfalva,HU,Honduras,1555619121,0,62,46.36,20.1,286.48,1
421,mayor pablo lagerenza,PY,Puerto Rico,1555619147,99,50,-19.93,-60.77,304.6,3.23
422,harper,US,United States of America,1555619125,1,35,30.3,-99.24,297.04,10.3
423,bocas del toro,PA,Oman,1555618800,59,50,9.33,-82.25,291.48,3.13
424,ayia paraskevi,GR,Gibraltar,1555619121,40,87,40.48,23.05,284.82,1.5
425,la ronge,CA,Burundi,1555617600,75,55,55.1,-105.3,287.15,4.6
426,ponta do sol,BR,Bouvet Island,1555618903,2,83,-20.63,-46,293.4,1.85
427,hambantota,LK,Lithuania,1555619154,28,74,6.12,81.12,302,1.98
428,estelle,US,United States of America,1555619143,20,43,32.87,-97.01,295.93,13.4
429,digoin,FR,Finland,1555618527,0,51,46.48,3.98,289.15,1
430,kloulklubed,PW,Puerto Rico,1555617000,75,88,7.04,134.26,299.15,2.6
431,berlevag,NO,Niue,1555617000,75,80,70.86,29.09,277.15,6.2
432,auki,NG,New Zealand,1555619161,0,5,12.18,6.51,305.3,3.27
433,pecos,US,United States of America,1555618928,1,22,31.42,-103.49,297.59,3.1
434,mangrol,IN,India,1555619163,0,36,25.33,76.51,299.9,2
435,atikokan,CA,Burundi,1555619165,91,55,48.76,-91.62,282.6,3.99
436,pelym,RU,Romania,1555619166,22,92,61.01,62,270.6,2.58
437,kudahuvadhoo,MV,Mozambique,1555619167,86,70,2.67,72.89,303.1,4.5
438,mackay,CA,Burundi,1555617600,75,37,53.65,-115.58,286.15,5.7
439,garden city,US,United States of America,1555619167,75,93,40.73,-73.63,290.37,9.3
440,srednekolymsk,RU,Romania,1555619172,100,86,67.46,153.71,261.8,10.56
441,funtua,NG,New Zealand,1555619173,3,6,11.52,7.31,303.7,3.05
442,sao filipe,CV,Cuba,1555619175,2,83,14.9,-24.5,295.2,9.64
443,azangaro,PE,Paraguay,1555617600,40,34,-14.91,-70.2,291.15,1.5
444,yashkul,RU,Romania,1555619177,58,46,46.17,45.34,276.8,3.53
445,garmsar,IR,Indonesia,1555619178,91,48,35.22,52.34,286.1,2.33
446,namatanai,PG,Peru,1555618929,100,88,-3.66,152.44,297.8,1.44
447,gorontalo,ID,Iceland,1555618900,80,88,0.54,123.06,298,1.12
448,bafoulabe,ML,"Micronesia, Federated States of",1555619182,0,5,13.81,-10.83,311.5,2.37
449,port augusta,au,Aruba,1555618992,1,71,-32.49,137.76,289.82,1.5
450,thinadhoo,MV,Mozambique,1555619184,100,77,0.53,72.93,302.5,5.33
451,agadez,NE,Nauru,1555617360,1,6,16.97,7.99,304.15,4.96
452,susuman,RU,Romania,1555619187,82,90,62.78,148.15,263,0.45
453,usinsk,RU,Romania,1555619188,100,92,66,57.56,272.6,5.83
454,tautira,PF,Peru,1555618995,40,62,-17.73,-149.15,304.15,4.6
455,ilulissat,GL,Gibraltar,1555617000,40,56,69.22,-51.1,263.15,1
456,coffs harbour,au,Aruba,1555619001,90,93,-30.3,153.13,292.15,2.6
457,katangli,RU,Romania,1555619193,99,88,51.71,143.23,273.7,8.99
458,guarapuava,BR,Bouvet Island,1555619188,0,69,-25.4,-51.46,290.8,1.11
460,bandarbeyla,SO,Slovenia,1555619197,33,72,9.49,50.81,299.4,3.69
461,north platte,US,United States of America,1555618569,75,70,41.12,-100.77,283.71,4.6
462,port elizabeth,US,United States of America,1555619177,1,53,39.31,-74.98,300.93,4.6
463,sao felix do xingu,BR,Bouvet Island,1555619201,29,86,-6.64,-51.99,299.8,1.29
464,haapiti,PF,Peru,1555618995,40,62,-17.57,-149.87,304.15,4.6
465,sabaudia,IT,Israel,1555619165,40,54,41.3,13.03,290.37,1.5
466,hohhot,CN,China,1555617600,20,30,40.81,111.65,287.15,5
467,eldoret,KE,Kazakhstan,1555619207,12,84,0.52,35.27,289.1,1.98
468,chapais,CA,Burundi,1555618800,90,93,49.78,-74.86,274.15,6.2
469,farmington,US,United States of America,1555618897,1,13,36.73,-108.21,295.93,8.7
470,labytnangi,RU,Romania,1555619211,99,92,66.66,66.39,268.7,4.96
472,seoul,KR,Korea?(South),1555617600,90,87,37.57,126.98,284.15,4.09
473,leninskoye,RU,Romania,1555615800,0,62,54.82,82.85,267.15,8
474,visby,SE,Saudi Arabia,1555618986,0,69,57.64,18.3,275.93,0.5
475,vrangel,RU,Romania,1555619215,0,42,42.73,133.08,273.7,1.74
476,chimbote,PE,Paraguay,1555619218,100,92,-9.08,-78.59,293.1,6.83
477,vestmanna,FO,Finland,1555617000,41,81,62.16,-7.17,282.15,5.7
478,newnan,US,United States of America,1555618890,40,44,33.38,-84.8,301.15,4.6
479,northam,GB,Gambia,1555619180,0,71,51.04,-4.21,289.26,1
480,the pas,CA,Burundi,1555617600,1,44,53.82,-101.24,288.15,7.2
481,goma,CD,Cayman Islands,1555619224,97,96,-1.67,29.23,287,1.48
483,pochutla,MX,Mozambique,1555618609,20,52,15.74,-96.47,306.48,7.7
484,sur,OM,Norway,1555619228,0,43,22.57,59.53,301,4.13
485,ocala,US,United States of America,1555619228,1,38,29.19,-82.14,305.93,4.6
486,petropavlovsk-kamchatskiy,RU,Romania,1555615800,75,79,53.05,158.65,273.15,2
487,tomatlan,MX,Mozambique,1555618939,0,52,19.93,-105.25,303.3,5.67
488,oregon city,US,United States of America,1555619225,1,59,45.36,-122.61,296.48,1.5
489,indramayu,ID,Iceland,1555619234,97,93,-4.05,103.78,294.4,1.03
490,cockburn town,TC,"Tanzania, United Republic of",1555619142,0,77,21.46,-71.14,299.1,8.87
491,beyneu,KZ,Kyrgyzstan,1555619237,98,81,45.32,55.19,274.8,6.21
492,ormond beach,US,United States of America,1555619110,40,65,29.29,-81.06,307.04,5.7
493,osakarovka,KZ,Kyrgyzstan,1555619239,100,35,50.56,72.58,270.9,9.02
494,cabedelo,BR,Bouvet Island,1555617600,20,78,-6.97,-34.84,301.15,4.1
495,tupik,RU,Romania,1555619242,77,82,54.43,119.94,262.1,2.31
496,naze,NG,New Zealand,1555619243,100,77,5.43,7.07,300.3,3.03
498,quelimane,MZ,Myanmar,1555617600,0,88,-17.88,36.89,299.15,1.25
499,singkang,MY,Mozambique,1555617600,75,88,2.1,102.8,299.15,2.1
500,itaituba,BR,Bouvet Island,1555614000,40,66,-4.26,-55.99,305.15,3.1
501,nogent-le-rotrou,FR,Finland,1555618757,0,72,48.32,0.82,291.15,2.6
502,coracao de jesus,BR,Bouvet Island,1555614000,40,40,-16.69,-44.37,305.15,3.6
503,oktyabrskiy,RU,Romania,1555618223,0,48,55.61,37.97,280.93,3
504,berdigestyakh,RU,Romania,1555619253,26,90,62.1,126.7,260.5,2.07
505,jacareacanga,BR,Bouvet Island,1555618978,89,68,-6.22,-57.76,302.4,2.03
506,tucuman,PE,Paraguay,1555619256,59,62,-17.17,-70.89,290.5,3.07
507,puksoozero,RU,Romania,1555619257,11,94,62.59,40.61,272.2,1.7
509,biltine,TD,"Tanzania, United Republic of",1555619052,13,9,14.53,20.93,307,6.63
510,okitipupa,NG,New Zealand,1555619156,100,82,6.5,4.78,301.3,3.03
511,capivari,BR,Bouvet Island,1555619224,0,44,-23,-47.51,299.15,2.6
512,guapi,CO,China,1555619263,100,72,2.57,-77.89,302.4,2.97
513,mapimi,MX,Mozambique,1555618531,5,15,25.82,-103.85,300.15,7.2
514,yate,GB,Gambia,1555619229,100,67,51.54,-2.41,290.15,3.1
515,kendari,ID,Iceland,1555619267,71,95,-3.99,122.52,296.3,1.14
516,tual,ID,Iceland,1555619268,96,73,-5.67,132.75,302.2,4.68
517,dasoguz,TM,Timor-Leste,1555617600,0,62,41.84,59.97,289.15,7.2
518,russell,AR,Antigua and Barbuda,1555617600,0,47,-33.01,-68.8,298.15,2.1
519,kuryk,KZ,Kyrgyzstan,1555619272,99,65,43.18,51.68,277.5,6.58
520,tari,NG,New Zealand,1555619274,25,6,12.41,4.49,306.8,3.45
521,wichita falls,US,United States of America,1555619113,1,30,33.91,-98.49,295.93,9.3
522,ereymentau,KZ,Kyrgyzstan,1555619276,100,51,51.62,73.1,270.2,3.64
523,bonnyville,CA,Burundi,1555617600,75,34,54.27,-110.74,285.15,6.2
525,longhua,CN,China,1555619280,100,62,29.21,106.21,297.4,2.71
526,turbat,PK,Pitcairn,1555619281,0,37,26,63.05,300.4,1.84
527,samarai,PG,Peru,1555619282,100,95,-10.62,150.67,296.4,1.31
528,severo-yeniseyskiy,RU,Romania,1555619284,100,88,60.37,93.04,270.5,7.98
529,goksun,TR,Tonga,1555617000,40,87,38.02,36.5,281.15,2.1
530,vicksburg,US,United States of America,1555618616,90,100,32.35,-90.88,290.15,6.7
531,panama city,US,United States of America,1555618983,40,65,30.16,-85.65,300.37,11.3
532,grand gaube,MU,Mozambique,1555619042,75,83,-20.01,57.66,299.15,2.6
533,marathon,CA,Burundi,1555617600,90,80,48.72,-86.38,278.15,5.7
534,gillette,US,United States of America,1555618718,75,34,44.29,-105.5,285.37,10.3
535,san luis de la paz,MX,Mozambique,1555619148,0,9,21.3,-100.52,303.71,4.02
536,dolores,AR,Antigua and Barbuda,1555619294,91,65,-36.31,-57.68,295.7,3.27
538,balikpapan,ID,Iceland,1555619297,100,97,-1.24,116.86,294.9,0.15
539,labuhan,ID,Iceland,1555619006,78,88,-2.54,115.51,297.3,1.15
540,nouadhibou,MR,Mozambique,1555617600,95,64,20.93,-17.03,293.15,8.2
541,zhigansk,RU,Romania,1555619301,67,90,66.77,123.37,260.4,5.02
542,high level,CA,Burundi,1555617660,75,28,58.52,-117.13,287.15,3.6
543,atar,MR,Mozambique,1555619303,0,11,20.52,-13.05,305.2,4.34
544,uige,AO,Antigua and Barbuda,1555619305,93,80,-7.61,15.06,295.5,1.26
545,aykhal,RU,Romania,1555617600,0,52,65.95,111.51,265.15,4
546,xining,CN,China,1555619308,68,51,36.62,101.77,280.6,1.75
548,svetlaya,RU,Romania,1555619310,1,54,46.54,138.33,271.1,4.61
549,kirkuk,IQ,Indonesia,1555619311,100,49,35.47,44.4,291.7,1.17
551,tecoanapa,MX,Mozambique,1555616640,5,74,16.99,-99.26,301.15,7.2
552,sao joao da barra,BR,Bouvet Island,1555617600,40,65,-21.64,-41.05,301.15,3.1
553,nemuro,JP,Jordan,1555619316,100,89,43.32,145.57,277.2,6.04
554,verkhoshizhemye,RU,Romania,1555619318,2,80,58.01,49.1,270,1.39
555,vitim,RU,Romania,1555619319,100,81,59.44,112.57,267.6,1.78
556,alofi,NU,Norway,1555617600,40,83,-19.06,-169.92,299.15,9.3
557,kharitonovo,RU,Romania,1555619322,38,96,61.4,47.5,271.8,1.95
558,itarema,BR,Bouvet Island,1555619323,75,84,-2.92,-39.92,299.1,2.43
559,elizabeth city,US,United States of America,1555619298,1,51,36.3,-76.22,302.15,7.7
561,houma,CN,China,1555619327,99,49,35.63,111.36,289.4,3.6
562,laguna,MX,Mozambique,1555616460,75,29,27.52,-110.01,306.15,4.1
564,yatou,CM,China,1555619331,100,74,3.63,9.81,302,3.7
565,sheridan,US,United States of America,1555619224,75,37,39.65,-105.03,290.37,5.1
566,abejorral,CO,China,1555619306,75,73,5.79,-75.43,299.15,2.1
567,matara,PE,Paraguay,1555614000,75,62,-13.74,-72.9,286.15,4.27
568,las palmas,PE,Paraguay,1555617600,75,290,-6.53,-76.35,290.15,1.5
569,wewak,PG,Peru,1555619337,100,90,-3.55,143.63,297.2,1.76
570,ekhabi,RU,Romania,1555619339,100,84,53.51,142.97,274.1,7.98
571,fantino,DO,Djibouti,1555617600,20,43,19.12,-70.3,305.15,7.2
572,severodvinsk,RU,Romania,1555615800,75,92,64.56,39.82,274.15,2
573,kruisfontein,ZA,Yemen,1555619343,0,95,-34,24.73,287.6,2.44
574,mujiayingzi,CN,China,1555619344,94,30,42.12,118.78,277.2,1.87
575,ust-kuyga,RU,Romania,1555619345,0,78,70,135.55,256.2,3.8
576,saint anthony,US,United States of America,1555619124,1,35,43.97,-111.68,289.82,5.1
577,honningsvag,NO,Niue,1555619348,82,88,70.98,25.97,277.1,10.08
578,erenhot,CN,China,1555619349,0,37,43.65,111.97,279.3,5.72
579,puerto quijarro,BO,Bhutan,1555617600,20,62,-19,-57.72,306.15,3.1
580,panlaitan,PH,Peru,1555619352,1,67,12.12,119.85,302.6,4.44
581,roswell,US,United States of America,1555619282,20,32,33.39,-104.52,294.82,1.04
582,hokitika,NZ,Norway,1555619354,21,61,-42.72,170.96,286.5,2.19
583,vila velha,BR,Bouvet Island,1555618807,40,78,-3.71,-38.6,301.15,3.6
584,birao,CF,Central African Republic,1555619356,33,15,10.3,22.78,305.9,3.48
585,nefteyugansk,RU,Romania,1555615800,90,100,61.09,72.61,270.15,4
586,muisne,EC,Dominican Republic,1555617600,20,74,0.61,-80.02,303.15,3.6
587,nybro,SE,Saudi Arabia,1555618949,0,80,56.75,15.91,281.15,0.5
588,jaisalmer,IN,India,1555619362,0,30,26.91,70.91,300.8,2.3
591,richards bay,ZA,Yemen,1555619365,90,81,-28.77,32.06,298.2,9
593,tygda,RU,Romania,1555619368,0,54,53.11,126.33,266.1,2.63
594,beloha,MG,Mexico,1555619369,84,76,-25.17,45.06,294.5,5.81
595,serenje,ZM,Zimbabwe,1555619370,2,96,-13.23,30.22,291,3.78
596,koszalin,PL,Pitcairn,1555619059,0,41,54.19,16.18,285.93,7.09
597,huntington,US,United States of America,1555619321,75,93,40.87,-73.43,290.37,9.3
598,ormara,PK,Pitcairn,1555619374,0,52,25.21,64.64,298.8,2.6
599,thunder bay,CA,Burundi,1555618991,90,66,48.41,-89.26,283.71,8.2
600,shingu,JP,Jordan,1555619376,51,98,33.72,135.99,282,1.35
601,miles city,US,United States of America,1555619293,1,25,46.41,-105.84,290.37,8.2
602,dharchula,IN,India,1555619379,0,50,29.85,80.53,275.3,4.28
603,sambava,MG,Mexico,1555619380,38,92,-14.27,50.17,294.8,1.65
604,taklisah,TN,Timor-Leste,1555617600,20,77,36.78,10.63,289.15,10.3
605,miyako,JP,Jordan,1555619136,0,87,33.63,130.94,287.59,1.5
606,tocopilla,CL,China,1555619384,100,94,-22.09,-70.2,290.6,5.77
607,skibbereen,IE,Iceland,1555615800,40,76,51.55,-9.27,285.15,6.2
608,la orilla,MX,Mozambique,1555619386,0,70,18,-102.23,300.6,5.18
609,shetpe,KZ,Kyrgyzstan,1555619388,100,74,44.14,52.16,275.3,6.61
610,vadodara,IN,India,1555619338,0,26,22.3,73.2,300.7,3.68
611,whyalla,au,Aruba,1555617600,1,71,-33.04,137.58,286.15,1.5
612,katobu,ID,Iceland,1555619391,99,94,-4.94,122.53,297.3,0.74
613,alta floresta,BR,Bouvet Island,1555614000,40,55,-9.87,-56.08,306.15,1.57
614,dingle,PH,Peru,1555619394,35,81,11,122.67,296.2,2.37
615,pekan,MY,Mozambique,1555614000,75,88,3.49,103.39,299.15,1
616,waterloo,CA,Burundi,1555619363,75,63,43.47,-80.52,296.48,7.2
618,dzheguta,RU,Romania,1555619399,100,97,43.97,42.04,273.2,2.13
619,najran,SA,Rwanda,1555614000,40,47,17.54,44.22,300.15,4.1
620,minab,IR,Indonesia,1555617600,0,78,27.15,57.07,297.15,2.1
622,margate,au,Aruba,1555619355,20,87,-43.03,147.26,279.26,4.6
