City,Country Code,Country,Cloudiness (%),Humidity (%),Max Temp (F),Wind Speed (mph),Lat,Lng
Albany,US,United States of America,90,66,55.0,6.7,42.65,-73.75
Chuy,UY,Uruguay,83,63,71.9,2.29,-33.69,-53.46
Mataura,NZ,Norway,0,70,49.0,2.62,-46.19,168.86
Belaya Gora,RU,Russia,84,79,6.7,5.28,68.54,146.19
Alenquer,BR,Bouvet Island,40,70,87.8,5.1,-1.95,-54.74
Punta Arenas,CL,China,75,75,44.6,3.1,-53.16,-70.91
Matagami,NG,New Zealand,100,44,85.2,1.21,9.67,8.4
Vanimo,PG,Peru,100,78,80.2,3.07,-2.67,141.3
Jamestown,au,Aruba,18,42,67.2,4.78,-33.21,138.6
Iralaya,HN,Heard and Mcdonald Islands,24,47,87.9,4.02,15,-83.23
Makakilo City,US,United States of America,40,54,82.4,3.6,21.35,-158.09
Hattiesburg,US,United States of America,90,94,75.2,4.1,31.33,-89.29
Coihaique,CL,China,40,54,55.4,3.1,-45.58,-72.07
Volkhov,RU,Russia,7,95,30.0,0.79,59.92,32.34
Gat,SN,Slovenia,57,73,69.8,9.3,14.69,-16.54
San Cristobal,EC,Dominican Republic,75,64,69.8,8.2,-0.39,-78.55
Coos Bay,US,United States of America,1,68,75.0,3.6,43.37,-124.22
Saskylakh,RU,Russia,23,80,-8.0,2.44,71.97,114.09
Celestun,MX,Mozambique,0,71,83.9,6.57,20.87,-90.4
Hilo,US,United States of America,40,69,76.0,3.6,19.71,-155.08
Kysyl-Syr,RU,Russia,81,90,10.3,3.55,63.9,122.77
Walvis Bay,NA,Myanmar,0,76,56.0,2.6,-22.95,14.51
Tuatapere,NZ,Norway,17,76,54.2,6.88,-46.13,167.69
Tiznit,MA,Luxembourg,0,74,62.3,15.99,29.7,-9.73
Hobart,au,Aruba,20,87,43.0,4.6,-42.88,147.33
Baijiantan,CN,China,28,39,51.0,2.48,45.63,85.18
Rikitea,PF,Peru,36,74,78.7,1.57,-23.12,-134.97
Tongzi,CN,China,100,62,77.5,2.9,28.78,105.09
Provideniya,RU,Russia,0,59,14.1,5.4,64.42,-173.23
Mareeba,au,Aruba,75,83,73.4,5.7,-16.99,145.42
Georgetown,GY,Guyana,75,79,84.2,7.2,6.8,-58.16
Varberg,SE,Saudi Arabia,0,70,50.0,2.6,57.11,12.25
Clyde River,CA,Burundi,20,70,-2.2,2.6,70.47,-68.59
Tuktoyaktuk,CA,Burundi,75,78,10.4,5.7,69.44,-133.03
Qaanaaq,GL,Gibraltar,100,86,-10.8,1.73,77.48,-69.36
Hoyanger,NO,Niue,0,61,51.0,4.1,61.22,6.07
Cajabamba,EC,Dominican Republic,40,46,73.4,5.1,-1.7,-78.77
Hermanus,ZA,Yemen,0,79,65.0,0.89,-34.42,19.24
Caravelas,BR,Bouvet Island,61,81,81.8,2.69,-17.73,-39.27
Hithadhoo,MV,Mozambique,100,73,83.9,5.22,-0.6,73.08
Souillac,FR,Finland,0,63,66.2,0.5,45.6,-0.6
Flin Flon,CA,Burundi,20,41,57.2,6.7,54.77,-101.88
Padang,ID,Iceland,100,73,83.4,3.57,-0.92,100.36
Talnakh,RU,Russia,20,75,-14.8,4,69.49,88.39
Abu Samrah,SY,Switzerland,100,75,54.1,2.29,35.3,37.18
Yellowknife,CA,Burundi,75,80,35.6,5.1,62.45,-114.38
Lazaro Cardenas,MX,Mozambique,20,25,79.0,5.1,28.39,-105.62
Airai,TL,Timor-Leste,0,68,73.0,2.72,-8.93,125.41
Luderitz,NA,Myanmar,0,87,53.6,0.5,-26.65,15.16
Inayawan,PH,Peru,20,83,78.8,1.54,10.27,123.86
Pirgos,GR,Gibraltar,20,55,60.8,7.7,35.12,25.72
Arraias,BR,Bouvet Island,65,74,78.4,0.63,-12.93,-46.94
Los Llanos De Aridane,ES,Eritrea,20,72,64.4,6.7,28.66,-17.92
Esperance,TT,Trinidad and Tobago,20,62,87.0,7.7,10.24,-61.45
Charters Towers,au,Aruba,0,88,65.4,3.69,-20.07,146.27
Kawalu,ID,Iceland,100,94,72.4,0.88,-7.38,108.21
Chokurdakh,RU,Russia,100,88,5.6,9.71,70.62,147.9
New Norfolk,au,Aruba,20,87,43.0,4.6,-42.78,147.06
Port Hardy,CA,Burundi,90,93,48.2,2.6,50.7,-127.42
Bandar,ID,Iceland,100,97,74.2,0.92,-4.2,104.14
Mwanza,TZ,Tuvalu,1,75,72.2,3.23,-2.52,32.9
Busselton,au,Aruba,68,96,52.0,14.17,-33.64,115.35
Ushuaia,AR,Antigua and Barbuda,40,74,37.4,6.2,-54.81,-68.31
Tiksi,RU,Russia,80,90,10.0,4.7,71.64,128.87
Port Lincoln,au,Aruba,100,71,69.7,7.57,-34.72,135.86
Avarua,CK,China,100,100,77.0,1,-21.21,-159.78
Ancud,CL,China,0,67,57.2,4.6,-41.87,-73.83
Atuona,PF,Peru,48,75,83.6,4.62,-9.8,-139.03
College,US,United States of America,90,79,29.0,3.6,64.86,-147.8
Belle Fourche,US,United States of America,69,34,56.0,10.8,44.67,-103.85
Pingliang,CN,China,20,94,53.7,2.21,35.54,106.68
Necochea,AR,Antigua and Barbuda,100,41,83.0,2.24,-38.55,-58.74
Honiara,SB,Saudi Arabia,40,94,75.2,1,-9.43,159.96
Scarborough,GB,Gambia,77,93,53.6,2.6,54.28,-0.41
Pisco,PE,Paraguay,0,30,78.0,3.1,-13.71,-76.2
San Quintin,PH,Peru,0,80,77.8,0.99,17.54,120.52
Aksu,KZ,Kyrgyzstan,0,92,15.8,2,52.04,76.93
Nikolskoye,RU,Russia,0,55,40.0,2,59.7,30.79
Mehamn,NO,Niue,75,80,39.2,6.2,71.03,27.85
Ribeira Grande,PT,Portugal,40,93,62.6,2.6,38.52,-28.7
Komsomolskiy,RU,Russia,100,94,28.1,5.39,67.55,63.78
Champerico,MX,Mozambique,40,30,95.0,3.1,16.38,-93.6
Chumikan,RU,Russia,100,85,21.8,4.16,54.72,135.31
Coquimbo,CL,China,75,67,62.6,5.1,-29.95,-71.34
Katsuura,JP,Jordan,40,82,55.4,1.5,33.93,134.5
Labuan,BN,Bhutan,75,89,84.2,0.5,5.28,115.24
Tasiilaq,GL,Gibraltar,75,80,35.6,10.8,65.61,-37.64
Mantua,IT,Israel,0,54,62.6,2.1,45.16,10.79
Nome,US,United States of America,75,73,76.0,3.6,30.04,-94.42
Dikson,RU,Russia,42,83,-5.7,2.91,73.51,80.55
Puerto Ayora,EC,Dominican Republic,40,70,86.0,6.7,-0.74,-90.35
Verkhoyansk,RU,Russia,0,85,3.3,1.58,67.55,133.39
Santa Cruz De La Palma,ES,Eritrea,20,72,64.4,6.7,28.68,-17.76
Yulara,au,Aruba,95,32,66.2,2.1,-25.24,130.99
Cedar City,US,United States of America,1,39,62.6,2.1,37.68,-113.06
Marawi,PH,Peru,54,88,75.0,1.79,8,124.29
Bireun,ID,Iceland,67,85,69.9,1.4,5.2,96.7
Iqaluit,CA,Burundi,90,85,24.8,9.8,63.75,-68.52
Acapulco,MX,Mozambique,5,74,82.4,7.2,16.86,-99.88
Nyazepetrovsk,RU,Russia,3,62,25.3,0.82,56.06,59.6
Vardo,US,United States of America,1,53,77.0,6.2,39.62,-77.74
Kavieng,PG,Peru,100,78,81.2,1.74,-2.57,150.8
Mount Gambier,au,Aruba,0,93,42.8,3.1,-37.83,140.78
Arraial Do Cabo,BR,Bouvet Island,40,78,82.4,9.3,-22.97,-42.02
Kodiak,US,United States of America,75,44,64.0,7.7,39.95,-94.76
Cidreira,BR,Bouvet Island,78,77,70.8,2.23,-30.17,-50.22
Saint-Philippe,CA,Burundi,90,44,63.0,9.3,45.36,-73.48
Neiafu,TO,Timor-Leste,75,83,78.8,2.1,-18.65,-173.98
Ostrovnoy,RU,Russia,100,91,31.7,4.72,68.05,39.51
Lorengau,PG,Peru,100,90,77.6,0.84,-2.02,147.27
Morrope,PE,Paraguay,0,57,80.6,9.3,-6.54,-80.02
Kahului,US,United States of America,40,54,82.4,7.2,20.89,-156.47
Bluff,au,Aruba,0,82,64.0,4.79,-23.58,149.07
Ende,ID,Iceland,0,73,81.2,1.03,-8.84,121.65
Sicuani,PE,Paraguay,100,74,49.9,3.64,-14.27,-71.23
Killybegs,IE,Iceland,51,72,60.8,4.1,54.63,-8.45
Belen,TR,Tonga,75,67,57.2,2.6,36.49,36.19
Camacha,PT,Portugal,40,67,62.6,8.7,33.08,-16.33
Bulandshahr,IN,India,4,37,79.1,2.13,28.41,77.85
East London,ZA,Yemen,75,88,68.0,5.1,-33.02,27.91
Roma,IT,Israel,40,54,63.0,1.5,41.89,12.48
Comodoro Rivadavia,AR,Antigua and Barbuda,75,30,69.8,6.2,-45.87,-67.48
Fort Pierce,US,United States of America,1,62,86.0,10.8,27.45,-80.33
Isangel,VU,"Virgin Islands, US",40,78,78.8,5.1,-19.55,169.27
Khatanga,RU,Russia,89,100,-11.5,0.68,71.98,102.47
Whitehorse,CA,Burundi,90,52,44.0,8.2,60.72,-135.06
Linjiang,CN,China,99,36,30.8,0.87,41.81,126.91
Mahebourg,MU,Mozambique,75,83,78.8,2.6,-20.41,57.7
Juegang,CN,China,0,89,62.0,0.45,32.31,121.18
Noumea,NC,Nauru,100,83,73.4,1,-22.28,166.46
Bathsheba,BB,Barbados,40,66,84.2,8.7,13.22,-59.52
Tibiri,NE,Nauru,0,6,84.8,3.82,13.59,7.06
Khaniotis,GR,Gibraltar,0,100,50.0,2.64,40,23.58
Severo-Kurilsk,RU,Russia,77,85,32.5,10.13,50.68,156.12
Pevek,RU,Russia,66,76,13.2,4.62,69.7,170.27
Kapaa,US,United States of America,40,61,80.6,6.7,22.08,-159.32
Kailua,US,United States of America,40,69,82.4,4.6,21.39,-157.74
Dhidhdhoo,MV,Mozambique,100,73,85.6,2.32,6.88,73.1
Alice Springs,au,Aruba,0,37,55.4,2.1,-23.7,133.88
Boa Viagem,BR,Bouvet Island,100,95,71.5,2.74,-5.13,-39.73
Beringovskiy,RU,Russia,0,82,13.7,1.14,63.05,179.32
Grindavik,IS,Ireland,90,100,48.0,11.8,63.84,-22.43
Flinders,au,Aruba,90,88,68.0,0.9,-34.58,150.85
Rameshki,RU,Russia,0,85,35.9,2.25,57.35,36.05
Vaini,IN,India,0,67,74.9,0.71,15.34,74.49
Avera,US,United States of America,40,47,84.0,3.6,33.19,-82.53
Novyye Gorki,RU,Russia,1,60,37.0,1.37,56.73,41.06
Kaitangata,NZ,Norway,0,74,49.2,1.6,-46.28,169.85
Salalah,OM,Norway,40,69,80.6,2.6,17.01,54.1
Wajima,JP,Jordan,99,69,51.7,9.32,37.4,136.9
Veraval,FR,Finland,0,59,62.6,3.6,49.65,0.71
Butaritari,KI,Kenya,100,80,82.9,7.13,3.07,172.79
Sabha,LY,Luxembourg,0,11,82.1,3.77,27.03,14.43
Deniliquin,au,Aruba,9,79,47.0,0.89,-35.53,144.96
Arlit,NE,Nauru,0,5,82.5,2.53,18.74,7.39
Mar Del Plata,AR,Antigua and Barbuda,33,34,64.0,8.82,-46.43,-67.52
Ossora,RU,Russia,86,85,29.6,0.85,59.24,163.07
San Carlos De Bariloche,AR,Antigua and Barbuda,0,25,64.4,9.8,-41.13,-71.31
Quatre Cocos,MU,Mozambique,75,83,78.8,2.6,-20.21,57.76
Cape Town,ZA,Yemen,0,82,67.0,1,-33.93,18.42
Lompoc,US,United States of America,40,44,82.0,4.1,34.64,-120.46
Sitka,US,United States of America,29,29,66.0,12.07,37.17,-99.65
Plettenberg Bay,ZA,Yemen,0,59,62.2,1.59,-34.05,23.37
Camocim,BR,Bouvet Island,100,88,78.0,2.11,-2.9,-40.84
Blackfoot,US,United States of America,1,38,62.0,8.2,43.19,-112.35
Lavrentiya,RU,Russia,0,81,2.2,4.45,65.58,-170.99
Faya,SA,Rwanda,0,77,69.8,3.6,18.39,42.45
Okhotsk,RU,Russia,100,86,28.9,3.95,59.36,143.24
Mecca,SA,Rwanda,0,40,77.3,4.78,21.43,39.83
Havre-Saint-Pierre,CA,Burundi,20,52,42.8,2.6,50.23,-63.6
Karratha,au,Aruba,100,44,81.8,6.69,-20.74,116.85
Guerrero Negro,MX,Mozambique,100,58,66.5,4.3,27.97,-114.04
Coahuayana,MX,Mozambique,0,9,104.6,2.24,18.62,-100.35
Vila Franca Do Campo,PT,Portugal,40,93,60.8,3.1,37.72,-25.43
Myskhako,RU,Russia,75,93,41.0,10,44.66,37.76
Skjervoy,NO,Niue,75,75,41.0,6.2,70.03,20.97
Tefe,BR,Bouvet Island,20,83,82.4,1,-3.35,-64.71
Kiama,au,Aruba,90,88,68.0,1.38,-34.67,150.86
Paamiut,GL,Gibraltar,0,60,27.1,20.4,61.99,-49.67
Bredasdorp,ZA,Yemen,0,93,64.0,0.5,-34.53,20.04
Baruun-Urt,MN,"Micronesia, Federated States of",0,33,35.9,4.88,46.68,113.28
Huilong,CN,China,4,96,65.6,1.67,28.89,110.18
Latur,IN,India,0,17,86.1,4.18,18.4,76.56
Torbay,CA,Burundi,90,71,34.0,8.7,47.66,-52.73
Copiapo,CL,China,20,56,68.0,4.1,-27.37,-70.33
Bonavista,CA,Burundi,24,77,32.0,4.02,48.65,-53.11
Ola,RU,Russia,100,81,29.9,4.11,59.58,151.3
Carutapera,BR,Bouvet Island,77,87,79.6,3,-1.2,-46.02
Hasaki,JP,Jordan,75,87,57.2,3.1,35.73,140.83
Pozo Colorado,PY,Puerto Rico,93,59,84.8,1.81,-23.49,-58.8
Zhezkazgan,KZ,Kyrgyzstan,100,65,37.1,10.37,47.8,67.71
Hollabrunn,AT,Aruba,0,54,55.4,1,48.56,16.08
Diplo,PK,Pitcairn,0,39,82.9,5.12,24.47,69.59
Tazovskiy,RU,Russia,67,83,-6.8,1.64,67.47,78.7
Murdochville,CA,Burundi,100,79,37.5,5.14,48.96,-65.49
San Remigio,PH,Peru,38,66,81.2,3.1,10.83,122.09
Roebourne,au,Aruba,100,41,82.5,7.17,-20.77,117.15
Romny,UA,Tuvalu,100,74,47.2,0.61,50.74,33.49
Kalmunai,LK,Lithuania,28,93,76.4,1.7,7.42,81.82
Gizo,IL,Iceland,20,67,62.6,3.6,31.8,34.94
Port Macquarie,au,Aruba,75,100,63.0,2.6,-31.43,152.91
Batticaloa,LK,Lithuania,28,93,76.4,1.7,7.71,81.69
Raudeberg,NO,Niue,0,61,59.0,4.1,61.99,5.14
Victoria,BN,Bhutan,75,89,84.2,0.5,5.28,115.24
Batak,BG,Bermuda,90,100,48.2,2.6,43.35,25.34
Thompson,CA,Burundi,75,37,55.4,2.1,55.74,-97.86
Valera,VE,Vanuatu,100,57,88.8,4.59,9.31,-70.61
Sinnamary,GF,Germany,37,81,81.4,7.16,5.38,-52.96
Ixtapa,MX,Mozambique,5,54,82.4,5.1,20.71,-105.21
Longyearbyen,NO,Niue,75,95,37.4,12.3,78.22,15.63
Vyartsilya,RU,Russia,58,94,35.2,1.02,62.18,30.69
El Bagre,CO,China,100,71,83.9,0.83,7.6,-74.8
Oistins,BB,Barbados,40,66,84.2,8.7,13.07,-59.53
Lebu,ET,Estonia,40,59,64.4,1,8.96,38.73
San Roque,EC,Dominican Republic,75,64,69.8,8.2,0.3,-78.23
Bambous Virieux,MU,Mozambique,75,83,78.8,2.6,-20.34,57.76
Santiago Del Estero,AR,Antigua and Barbuda,58,65,81.1,3.79,-27.8,-64.26
Tiszakecske,HU,Honduras,0,62,56.0,1,46.93,20.1
Husavik,CA,Burundi,1,27,59.0,1.29,50.56,-96.99
Cabra,ES,Eritrea,0,93,51.8,1.5,37.47,-4.43
Bull Savanna,JM,Jersey,23,71,82.9,7.48,17.89,-77.59
Faanui,PF,Peru,68,77,83.9,5.33,-16.48,-151.75
Atambua,ID,Iceland,0,65,82.0,4.83,-9.11,124.89
Touros,BR,Bouvet Island,20,70,86.0,5.7,-5.2,-35.46
Bay Roberts,CA,Burundi,90,58,34.0,8.7,47.58,-53.28
Shubarkuduk,KZ,Kyrgyzstan,44,43,32.3,5.53,49.15,56.49
Yumen,CN,China,100,19,58.7,7.13,40.29,97.04
Sable-Sur-Sarthe,FR,Finland,0,55,66.2,2.6,47.84,-0.33
Jining,CN,China,41,42,57.5,4.29,35.41,116.58
Astana,KZ,Kyrgyzstan,0,58,24.8,9,51.13,71.43
Hirado,JP,Jordan,0,93,60.0,2.1,33.32,129.49
Totness,US,United States of America,40,45,82.4,4.1,33.74,-80.8
Etawah,IN,India,0,38,79.1,2.39,26.78,79.02
Saint George,GR,Gibraltar,40,76,51.8,1.44,39.45,22.34
Kirakira,SB,Saudi Arabia,98,78,81.1,2.17,-10.46,161.92
Tura,IN,India,0,54,75.8,2.51,25.52,90.21
Lubao,PH,Peru,75,83,83.0,1,14.94,120.6
Nalut,LY,Luxembourg,0,35,72.4,6.28,31.86,10.98
Coolum Beach,au,Aruba,16,94,66.0,0.89,-26.53,153.09
Waipawa,NZ,Norway,0,65,53.2,0.79,-39.94,176.59
Dong Hoi,VN,"Virgin Islands, US",0,59,85.4,3.39,17.48,106.6
Nalundan,PH,Peru,29,93,70.6,2.13,9.75,123.07
Cabo San Lucas,MX,Mozambique,75,44,86.0,2.1,22.89,-109.91
Alyangula,au,Aruba,90,94,75.2,5.34,-13.85,136.42
Castro,CL,China,0,67,57.2,4.6,-42.48,-73.76
Parati,BR,Bouvet Island,75,58,84.2,3.1,-20.51,-54.63
Upernavik,GL,Gibraltar,32,92,-1.9,3.9,72.79,-56.15
Barrow,AR,Antigua and Barbuda,99,52,76.0,2.64,-38.31,-60.23
Cherskiy,RU,Russia,78,91,24.5,7.72,68.75,161.3
Namibe,AO,Antigua and Barbuda,59,74,73.5,4.67,-15.19,12.15
Salta,AR,Antigua and Barbuda,40,69,75.2,4.1,-24.79,-65.41
Katwijk,NL,Niue,0,42,65.0,6.2,52.2,4.41
Kutum,SD,Saudi Arabia,30,12,78.4,5.4,14.2,24.66
Posse,BR,Bouvet Island,72,76,77.8,0.53,-14.08,-46.36
Bilibino,RU,Russia,82,91,15.0,5.68,68.06,166.44
Fukue,JP,Jordan,75,87,57.2,1.5,35.03,136.69
Angoche,MZ,Myanmar,10,88,77.8,2.43,-16.23,39.91
Dahod,IN,India,0,27,82.5,3.76,22.84,74.26
Bethel,US,United States of America,40,45,28.4,4.6,60.79,-161.76
Nanortalik,GL,Gibraltar,21,75,32.5,1.77,60.14,-45.24
Krasnyy Yar,RU,Russia,37,44,33.5,2.62,50.7,44.73
Yinchuan,CN,China,65,18,61.0,0.45,38.48,106.21
Inuvik,CA,Burundi,75,62,23.0,3.6,68.36,-133.71
Saldanha,PT,Portugal,99,71,52.4,2.26,41.42,-6.55
Karatuzskoye,RU,Russia,100,39,23.6,10.27,53.61,92.87
Maniitsoq,GL,Gibraltar,0,59,20.9,5.89,65.42,-52.9
Palmer,US,United States of America,90,93,38.0,3.1,61.6,-149.11
Dalby,au,Aruba,0,87,57.2,0.5,-27.18,151.26
Norman Wells,CA,Burundi,90,90,32.0,2.6,65.28,-126.83
Bilma,NE,Nauru,0,10,76.7,2.26,18.69,12.92
Piacabucu,BR,Bouvet Island,100,79,81.1,3.39,-10.41,-36.43
Tilichiki,RU,Russia,100,88,28.5,1.93,60.47,166.1
Sorong,ID,Iceland,96,95,75.5,1.11,-0.86,131.25
Opuwo,NA,Myanmar,49,37,76.4,1.92,-18.06,13.84
Nampula,MZ,Myanmar,78,99,69.5,2.32,-15.12,39.26
Port-Gentil,GA,French Southern Territories,20,94,78.8,2.1,-0.72,8.78
Bereda,ES,Eritrea,20,71,57.2,1.5,43.27,-7.54
Santa Vitoria Do Palmar,BR,Bouvet Island,92,65,69.5,2.15,-33.52,-53.37
Sundarnagar,IN,India,1,46,61.4,1.67,31.53,76.88
Sarny,UA,Tuvalu,0,62,49.0,4.26,51.32,26.62
Kouango,CF,Central African Republic,70,53,82.5,1.95,4.99,19.98
Hualmay,PE,Paraguay,100,92,68.6,6.93,-11.1,-77.61
Port Alfred,ZA,Yemen,28,92,66.0,3.13,-33.59,26.89
Ust-Tsilma,RU,Russia,100,90,33.9,4.12,65.44,52.15
Codrington,au,Aruba,40,93,69.8,2.8,-28.95,153.24
Mae Hong Son,MM,"Micronesia, Federated States of",0,43,77.6,0.84,19.3,97.96
Huarmey,PE,Paraguay,100,91,68.6,7.69,-10.07,-78.15
Fortuna,ES,Eritrea,75,77,60.8,2.6,38.18,-1.13
Evensk,RU,Russia,98,85,28.1,1.22,61.92,159.24
Puerto Escondido,MX,Mozambique,5,74,82.4,7.2,15.86,-97.07
Maceio,BR,Bouvet Island,0,69,82.4,5.1,-9.67,-35.74
Henties Bay,NA,Myanmar,0,91,56.0,1.34,-22.12,14.28
Batagay-Alyta,RU,Russia,5,69,-5.2,1.85,67.8,130.41
Lac Du Bonnet,CA,Burundi,0,27,59.0,2.19,50.25,-96.06
Tromso,NO,Niue,75,75,39.2,6.2,69.65,18.96
Pangnirtung,CA,Burundi,75,61,12.2,1,66.15,-65.72
Storforshei,NO,Niue,75,93,40.0,2.6,66.4,14.52
Gigmoto,PH,Peru,6,80,81.8,4.42,13.78,124.39
Zhanakorgan,KZ,Kyrgyzstan,20,53,68.3,5.33,43.91,67.25
Fort Saint James,CA,Burundi,100,61,47.2,2.89,54.43,-124.25
Sao Manuel,BR,Bouvet Island,0,30,86.0,3.1,-22.73,-48.57
Senftenberg,DE,Czech Republic,0,44,57.2,4.1,51.52,14
Geraldton,CA,Burundi,75,65,44.6,4.1,49.72,-86.95
Pangai,TO,Timor-Leste,75,83,78.8,7.7,-19.8,-174.35
Tiarei,PF,Peru,40,62,87.8,4.6,-17.53,-149.33
Frontera,MX,Mozambique,5,44,95.0,5.7,18.53,-92.64
Anadyr,RU,Russia,0,71,12.0,1,64.73,177.51
Yining,CN,China,1,94,65.8,0.76,29.04,114.56
Te Anau,NZ,Norway,91,86,46.9,2.31,-45.41,167.72
Tokomaru,NZ,Norway,0,90,49.0,0.89,-40.47,175.51
Rocha,UY,Uruguay,98,67,66.3,1.27,-34.48,-54.34
Grand Baie,MU,Mozambique,75,83,78.8,2.6,-20.02,57.58
Mushie,CD,Cayman Islands,95,72,79.6,1.41,-3.02,16.92
Novoagansk,RU,Russia,100,94,13.4,3.38,61.94,76.66
Chunhuhub,MX,Mozambique,0,38,94.2,3.63,19.59,-88.59
Tyrma,RU,Russia,100,80,25.6,5.58,50.04,132.17
Hongjiang,CN,China,69,98,65.4,1.64,27.21,109.83
Lagoa,PT,Portugal,20,82,59.0,3.6,37.14,-8.45
Sept-Iles,CA,Burundi,90,69,38.0,2.6,50.2,-66.38
Santa Cruz Del Sur,CU,Croatia,0,29,93.1,2.92,20.71,-78
Gavle,SE,Saudi Arabia,47,62,44.0,1.34,60.67,17.14
Twin Falls,US,United States of America,1,36,69.0,4.6,42.57,-114.46
Tigil,RU,Russia,97,76,35.0,3.14,57.8,158.67
Mathathane,BW,Burundi,0,45,73.9,5.17,-22.27,28.75
Rawson,AR,Antigua and Barbuda,0,31,64.9,7.67,-43.3,-65.11
Haines Junction,CA,Burundi,96,70,33.0,4.08,60.75,-137.51
Parsabad,AZ,austria,75,81,48.2,11.8,39.65,47.92
Aksarka,RU,Russia,100,89,24.7,4.69,66.56,67.8
Ahipara,NZ,Norway,19,70,64.1,6.2,-35.17,173.16
Sobolevo,RU,Russia,0,65,41.8,4.62,54.43,31.9
Liuhe,CN,China,100,27,36.8,2.46,42.28,125.73
Makat,KZ,Kyrgyzstan,2,58,34.4,3.83,47.65,53.35
Liverpool,GB,Gambia,20,58,61.0,4.6,53.41,-2.98
Ugoofaaru,MV,Mozambique,100,74,83.4,3.12,5.67,73
Skeldon,GY,Guyana,100,78,81.1,3.09,5.88,-57.13
Carnarvon,ZA,Yemen,0,14,61.8,1.53,-30.97,22.13
Yeppoon,au,Aruba,7,82,66.2,1.5,-23.13,150.74
Saint-Augustin,FR,Finland,0,55,62.6,2.1,44.83,-0.61
Kataysk,RU,Russia,21,65,28.1,2.14,56.29,62.58
Nizhniy Tsasuchey,RU,Russia,0,38,34.4,5.04,50.52,115.13
Presidencia Roque Saenz Pena,AR,Antigua and Barbuda,81,54,82.7,1.6,-26.79,-60.44
Shaowu,CN,China,100,96,65.2,1.97,27.34,117.49
Meridian,US,United States of America,75,61,80.6,4.1,32.36,-88.7
Zaysan,KZ,Kyrgyzstan,51,61,26.5,3.38,47.47,84.87
Preobrazheniye,RU,Russia,0,44,29.6,2.38,42.9,133.91
Blatec,MK,"Micronesia, Federated States of",6,90,38.2,2.95,41.84,22.58
Matamoros,US,United States of America,1,27,89.6,9.8,25.87,-97.51
Eureka,US,United States of America,90,93,77.0,3.1,40.8,-124.16
Kitgum,UG,Tuvalu,14,59,73.5,1.36,3.3,32.88
Shimanovsk,RU,Russia,0,40,24.2,5.98,52,127.67
Balakhta,RU,Russia,100,57,21.5,11.12,55.38,91.62
Banda Aceh,ID,Iceland,100,71,85.0,3.42,5.56,95.32
Dongfeng,CN,China,86,27,35.5,3.08,42.67,125.53
Phonhong,LA,Kyrgyzstan,0,59,78.5,0.69,18.5,102.42
Nauta,PE,Paraguay,100,92,81.8,1.64,-4.51,-73.58
Abu Zabad,SD,Saudi Arabia,5,8,85.9,8.79,12.35,29.25
Deder,ET,Estonia,19,47,78.4,2.86,9.31,41.44
Praia Da Vitoria,PT,Portugal,40,72,68.0,3.73,38.73,-27.07
Arman,RU,Russia,95,85,24.0,2.14,59.7,150.17
Port Blair,IN,India,78,64,85.2,1.86,11.67,92.75
Riberalta,BO,Bhutan,75,55,91.4,3.1,-11,-66.08
Eseka,CM,China,100,96,75.5,1.3,3.65,10.77
Barguzin,RU,Russia,97,65,30.1,1.51,53.62,109.63
Poum,MK,"Micronesia, Federated States of",1,81,40.4,2.3,41.28,20.71
Constitucion,MX,Mozambique,5,9,71.6,1,23.99,-104.67
Mackenzie,CA,Burundi,40,43,51.8,7.2,55.34,-123.09
Klaksvik,FO,Finland,54,81,48.2,5.7,62.23,-6.59
Tuy Hoa,VN,"Virgin Islands, US",28,84,76.4,1.06,13.08,109.3
Homer,US,United States of America,90,86,38.0,5.7,59.64,-151.54
Burnie,au,Aruba,0,74,46.0,3.13,-41.05,145.91
Lagunillas,VE,Vanuatu,100,79,71.9,1.85,8.5,-71.39
Kropotkin,RU,Russia,100,52,45.0,6.1,45.43,40.58
Garoua,CM,China,61,11,98.9,1.7,9.31,13.39
Tessalit,ML,"Micronesia, Federated States of",0,4,89.2,3.42,20.2,1.01
Lata,IN,India,48,71,18.8,4.16,30.78,78.62
Sandorfalva,HU,Honduras,0,62,56.0,1,46.36,20.1
Mayor Pablo Lagerenza,PY,Puerto Rico,99,50,88.6,3.23,-19.93,-60.77
Harper,US,United States of America,1,35,75.0,10.3,30.3,-99.24
Bocas Del Toro,PA,Oman,59,50,65.0,3.13,9.33,-82.25
Ayia Paraskevi,GR,Gibraltar,40,87,53.0,1.5,40.48,23.05
La Ronge,CA,Burundi,75,55,57.2,4.6,55.1,-105.3
Ponta Do Sol,BR,Bouvet Island,2,83,68.5,1.85,-20.63,-46
Hambantota,LK,Lithuania,28,74,83.9,1.98,6.12,81.12
Estelle,US,United States of America,20,43,73.0,13.4,32.87,-97.01
Digoin,FR,Finland,0,51,60.8,1,46.48,3.98
Kloulklubed,PW,Puerto Rico,75,88,78.8,2.6,7.04,134.26
Berlevag,NO,Niue,75,80,39.2,6.2,70.86,29.09
Auki,NG,New Zealand,0,5,89.9,3.27,12.18,6.51
Pecos,US,United States of America,1,22,76.0,3.1,31.42,-103.49
Mangrol,IN,India,0,36,80.2,2,25.33,76.51
Atikokan,CA,Burundi,91,55,49.0,3.99,48.76,-91.62
Pelym,RU,Russia,22,92,27.4,2.58,61.01,62
Kudahuvadhoo,MV,Mozambique,86,70,85.9,4.5,2.67,72.89
Mackay,CA,Burundi,75,37,55.4,5.7,53.65,-115.58
Garden City,US,United States of America,75,93,63.0,9.3,40.73,-73.63
Srednekolymsk,RU,Russia,100,86,11.6,10.56,67.46,153.71
Funtua,NG,New Zealand,3,6,87.0,3.05,11.52,7.31
Sao Filipe,CV,Cuba,2,83,71.7,9.64,14.9,-24.5
Azangaro,PE,Paraguay,40,34,64.4,1.5,-14.91,-70.2
Yashkul,RU,Russia,58,46,38.6,3.53,46.17,45.34
Garmsar,IR,Indonesia,91,48,55.3,2.33,35.22,52.34
Namatanai,PG,Peru,100,88,76.4,1.44,-3.66,152.44
Gorontalo,ID,Iceland,80,88,76.7,1.12,0.54,123.06
Bafoulabe,ML,"Micronesia, Federated States of",0,5,101.0,2.37,13.81,-10.83
Port Augusta,au,Aruba,1,71,62.0,1.5,-32.49,137.76
Thinadhoo,MV,Mozambique,100,77,84.8,5.33,0.53,72.93
Agadez,NE,Nauru,1,6,87.8,4.96,16.97,7.99
Susuman,RU,Russia,82,90,13.7,0.45,62.78,148.15
Usinsk,RU,Russia,100,92,31.0,5.83,66,57.56
Tautira,PF,Peru,40,62,87.8,4.6,-17.73,-149.15
Ilulissat,GL,Gibraltar,40,56,14.0,1,69.22,-51.1
Coffs Harbour,au,Aruba,90,93,66.2,2.6,-30.3,153.13
Katangli,RU,Russia,99,88,33.0,8.99,51.71,143.23
Guarapuava,BR,Bouvet Island,0,69,63.8,1.11,-25.4,-51.46
Bandarbeyla,SO,Slovenia,33,72,79.3,3.69,9.49,50.81
North Platte,US,United States of America,75,70,51.0,4.6,41.12,-100.77
Port Elizabeth,US,United States of America,1,53,82.0,4.6,39.31,-74.98
Sao Felix Do Xingu,BR,Bouvet Island,29,86,80.0,1.29,-6.64,-51.99
Haapiti,PF,Peru,40,62,87.8,4.6,-17.57,-149.87
Sabaudia,IT,Israel,40,54,63.0,1.5,41.3,13.03
Hohhot,CN,China,20,30,57.2,5,40.81,111.65
Eldoret,KE,Kazakhstan,12,84,60.7,1.98,0.52,35.27
Chapais,CA,Burundi,90,93,33.8,6.2,49.78,-74.86
Farmington,US,United States of America,1,13,73.0,8.7,36.73,-108.21
Labytnangi,RU,Russia,99,92,24.0,4.96,66.66,66.39
Seoul,KR,Korea?(South),90,87,51.8,4.09,37.57,126.98
Leninskoye,RU,Russia,0,62,21.2,8,54.82,82.85
Visby,SE,Saudi Arabia,0,69,37.0,0.5,57.64,18.3
Vrangel,RU,Russia,0,42,33.0,1.74,42.73,133.08
Chimbote,PE,Paraguay,100,92,67.9,6.83,-9.08,-78.59
Vestmanna,FO,Finland,41,81,48.2,5.7,62.16,-7.17
Newnan,US,United States of America,40,44,82.4,4.6,33.38,-84.8
Northam,GB,Gambia,0,71,61.0,1,51.04,-4.21
The Pas,CA,Burundi,1,44,59.0,7.2,53.82,-101.24
Goma,CD,Cayman Islands,97,96,56.9,1.48,-1.67,29.23
Pochutla,MX,Mozambique,20,52,92.0,7.7,15.74,-96.47
Sur,OM,Norway,0,43,82.1,4.13,22.57,59.53
Ocala,US,United States of America,1,38,91.0,4.6,29.19,-82.14
Petropavlovsk-Kamchatskiy,RU,Russia,75,79,32.0,2,53.05,158.65
Tomatlan,MX,Mozambique,0,52,86.3,5.67,19.93,-105.25
Oregon City,US,United States of America,1,59,74.0,1.5,45.36,-122.61
Indramayu,ID,Iceland,97,93,70.3,1.03,-4.05,103.78
Cockburn Town,TC,"Tanzania, United Republic of",0,77,78.7,8.87,21.46,-71.14
Beyneu,KZ,Kyrgyzstan,98,81,35.0,6.21,45.32,55.19
Ormond Beach,US,United States of America,40,65,93.0,5.7,29.29,-81.06
Osakarovka,KZ,Kyrgyzstan,100,35,28.0,9.02,50.56,72.58
Cabedelo,BR,Bouvet Island,20,78,82.4,4.1,-6.97,-34.84
Tupik,RU,Russia,77,82,12.1,2.31,54.43,119.94
Naze,NG,New Zealand,100,77,80.9,3.03,5.43,7.07
Quelimane,MZ,Myanmar,0,88,78.8,1.25,-17.88,36.89
Singkang,MY,Mozambique,75,88,78.8,2.1,2.1,102.8
Itaituba,BR,Bouvet Island,40,66,89.6,3.1,-4.26,-55.99
Nogent-Le-Rotrou,FR,Finland,0,72,64.4,2.6,48.32,0.82
Coracao De Jesus,BR,Bouvet Island,40,40,89.6,3.6,-16.69,-44.37
Oktyabrskiy,RU,Russia,0,48,46.0,3,55.61,37.97
Berdigestyakh,RU,Russia,26,90,9.2,2.07,62.1,126.7
Jacareacanga,BR,Bouvet Island,89,68,84.7,2.03,-6.22,-57.76
Tucuman,PE,Paraguay,59,62,63.2,3.07,-17.17,-70.89
Puksoozero,RU,Russia,11,94,30.3,1.7,62.59,40.61
Biltine,TD,"Tanzania, United Republic of",13,9,92.9,6.63,14.53,20.93
Okitipupa,NG,New Zealand,100,82,82.7,3.03,6.5,4.78
Capivari,BR,Bouvet Island,0,44,78.8,2.6,-23,-47.51
Guapi,CO,China,100,72,84.7,2.97,2.57,-77.89
Mapimi,MX,Mozambique,5,15,80.6,7.2,25.82,-103.85
Yate,GB,Gambia,100,67,62.6,3.1,51.54,-2.41
Kendari,ID,Iceland,71,95,73.7,1.14,-3.99,122.52
Tual,ID,Iceland,96,73,84.3,4.68,-5.67,132.75
Dasoguz,TM,Timor-Leste,0,62,60.8,7.2,41.84,59.97
Russell,AR,Antigua and Barbuda,0,47,77.0,2.1,-33.01,-68.8
Kuryk,KZ,Kyrgyzstan,99,65,39.8,6.58,43.18,51.68
Tari,NG,New Zealand,25,6,92.6,3.45,12.41,4.49
Wichita Falls,US,United States of America,1,30,73.0,9.3,33.91,-98.49
Ereymentau,KZ,Kyrgyzstan,100,51,26.7,3.64,51.62,73.1
Bonnyville,CA,Burundi,75,34,53.6,6.2,54.27,-110.74
Longhua,CN,China,100,62,75.7,2.71,29.21,106.21
Turbat,PK,Pitcairn,0,37,81.1,1.84,26,63.05
Samarai,PG,Peru,100,95,73.9,1.31,-10.62,150.67
Severo-Yeniseyskiy,RU,Russia,100,88,27.2,7.98,60.37,93.04
Goksun,TR,Tonga,40,87,46.4,2.1,38.02,36.5
Vicksburg,US,United States of America,90,100,62.6,6.7,32.35,-90.88
Panama City,US,United States of America,40,65,81.0,11.3,30.16,-85.65
Grand Gaube,MU,Mozambique,75,83,78.8,2.6,-20.01,57.66
Marathon,CA,Burundi,90,80,41.0,5.7,48.72,-86.38
Gillette,US,United States of America,75,34,54.0,10.3,44.29,-105.5
San Luis De La Paz,MX,Mozambique,0,9,87.0,4.02,21.3,-100.52
Dolores,AR,Antigua and Barbuda,91,65,72.6,3.27,-36.31,-57.68
Balikpapan,ID,Iceland,100,97,71.2,0.15,-1.24,116.86
Labuhan,ID,Iceland,78,88,75.5,1.15,-2.54,115.51
Nouadhibou,MR,Mozambique,95,64,68.0,8.2,20.93,-17.03
Zhigansk,RU,Russia,67,90,9.1,5.02,66.77,123.37
High Level,CA,Burundi,75,28,57.2,3.6,58.52,-117.13
Atar,MR,Mozambique,0,11,89.7,4.34,20.52,-13.05
Uige,AO,Antigua and Barbuda,93,80,72.2,1.26,-7.61,15.06
Aykhal,RU,Russia,0,52,17.6,4,65.95,111.51
Xining,CN,China,68,51,45.4,1.75,36.62,101.77
Svetlaya,RU,Russia,1,54,28.3,4.61,46.54,138.33
Kirkuk,IQ,Indonesia,100,49,65.4,1.17,35.47,44.4
Tecoanapa,MX,Mozambique,5,74,82.4,7.2,16.99,-99.26
Sao Joao Da Barra,BR,Bouvet Island,40,65,82.4,3.1,-21.64,-41.05
Nemuro,JP,Jordan,100,89,39.3,6.04,43.32,145.57
Verkhoshizhemye,RU,Russia,2,80,26.3,1.39,58.01,49.1
Vitim,RU,Russia,100,81,22.0,1.78,59.44,112.57
Alofi,NU,Norway,40,83,78.8,9.3,-19.06,-169.92
Kharitonovo,RU,Russia,38,96,29.6,1.95,61.4,47.5
Itarema,BR,Bouvet Island,75,84,78.7,2.43,-2.92,-39.92
Elizabeth City,US,United States of America,1,51,84.2,7.7,36.3,-76.22
Houma,CN,China,99,49,61.3,3.6,35.63,111.36
Laguna,MX,Mozambique,75,29,91.4,4.1,27.52,-110.01
Yatou,CM,China,100,74,83.9,3.7,3.63,9.81
Sheridan,US,United States of America,75,37,63.0,5.1,39.65,-105.03
Abejorral,CO,China,75,73,78.8,2.1,5.79,-75.43
Matara,PE,Paraguay,75,62,55.4,4.27,-13.74,-72.9
Las Palmas,PE,Paraguay,75,290,62.6,1.5,-6.53,-76.35
Wewak,PG,Peru,100,90,75.3,1.76,-3.55,143.63
Ekhabi,RU,Russia,100,84,33.7,7.98,53.51,142.97
Fantino,DO,Djibouti,20,43,89.6,7.2,19.12,-70.3
Severodvinsk,RU,Russia,75,92,33.8,2,64.56,39.82
Kruisfontein,ZA,Yemen,0,95,58.0,2.44,-34,24.73
Mujiayingzi,CN,China,94,30,39.3,1.87,42.12,118.78
Ust-Kuyga,RU,Russia,0,78,1.5,3.8,70,135.55
Saint Anthony,US,United States of America,1,35,62.0,5.1,43.97,-111.68
Honningsvag,NO,Niue,82,88,39.1,10.08,70.98,25.97
Erenhot,CN,China,0,37,43.1,5.72,43.65,111.97
Puerto Quijarro,BO,Bhutan,20,62,91.4,3.1,-19,-57.72
Panlaitan,PH,Peru,1,67,85.0,4.44,12.12,119.85
Roswell,US,United States of America,20,32,71.0,1.04,33.39,-104.52
Hokitika,NZ,Norway,21,61,56.0,2.19,-42.72,170.96
Vila Velha,BR,Bouvet Island,40,78,82.4,3.6,-3.71,-38.6
Birao,CF,Central African Republic,33,15,91.0,3.48,10.3,22.78
Nefteyugansk,RU,Russia,90,100,26.6,4,61.09,72.61
Muisne,EC,Dominican Republic,20,74,86.0,3.6,0.61,-80.02
Nybro,SE,Saudi Arabia,0,80,46.4,0.5,56.75,15.91
Jaisalmer,IN,India,0,30,81.8,2.3,26.91,70.91
Richards Bay,ZA,Yemen,90,81,77.1,9,-28.77,32.06
Tygda,RU,Russia,0,54,19.3,2.63,53.11,126.33
Beloha,MG,Mexico,84,76,70.4,5.81,-25.17,45.06
Serenje,ZM,Zimbabwe,2,96,64.1,3.78,-13.23,30.22
Koszalin,PL,Pitcairn,0,41,55.0,7.09,54.19,16.18
Huntington,US,United States of America,75,93,63.0,9.3,40.87,-73.43
Ormara,PK,Pitcairn,0,52,78.2,2.6,25.21,64.64
Thunder Bay,CA,Burundi,90,66,51.0,8.2,48.41,-89.26
Shingu,JP,Jordan,51,98,47.9,1.35,33.72,135.99
Miles City,US,United States of America,1,25,63.0,8.2,46.41,-105.84
Dharchula,IN,India,0,50,35.9,4.28,29.85,80.53
Sambava,MG,Mexico,38,92,71.0,1.65,-14.27,50.17
Taklisah,TN,Timor-Leste,20,77,60.8,10.3,36.78,10.63
Miyako,JP,Jordan,0,87,58.0,1.5,33.63,130.94
Tocopilla,CL,China,100,94,63.4,5.77,-22.09,-70.2
Skibbereen,IE,Iceland,40,76,53.6,6.2,51.55,-9.27
La Orilla,MX,Mozambique,0,70,81.4,5.18,18,-102.23
Shetpe,KZ,Kyrgyzstan,100,74,35.9,6.61,44.14,52.16
Vadodara,IN,India,0,26,81.6,3.68,22.3,73.2
Whyalla,au,Aruba,1,71,55.4,1.5,-33.04,137.58
Katobu,ID,Iceland,99,94,75.5,0.74,-4.94,122.53
Alta Floresta,BR,Bouvet Island,40,55,91.4,1.57,-9.87,-56.08
Dingle,PH,Peru,35,81,73.5,2.37,11,122.67
Pekan,MY,Mozambique,75,88,78.8,1,3.49,103.39
Waterloo,CA,Burundi,75,63,74.0,7.2,43.47,-80.52
Dzheguta,RU,Russia,100,97,32.1,2.13,43.97,42.04
Najran,SA,Rwanda,40,47,80.6,4.1,17.54,44.22
Minab,IR,Indonesia,0,78,75.2,2.1,27.15,57.07
Margate,au,Aruba,20,87,43.0,4.6,-43.03,147.26