City ID,City,Country,Date,Cloudiness,Humidity (%),Latitude,Longitude,Max Temp (°F),Wind Speed (mph)
0,Rikitea,PF,1555345081,24,100,-23.12,-134.97,297.239,10.66
1,Ushuaia,AR,1555340400,40,61,-54.81,-68.31,282.15,2.6
2,Ponta Do Sol,BR,1555345083,92,95,-20.63,-46,294.889,3.31
4,Hermanus,ZA,1555345004,48,79,-34.42,19.24,290.93,1.91
5,Cape Town,ZA,1555344914,20,48,-33.93,18.42,291.48,6.7
6,Erzin,TR,1555344969,75,59,36.95,36.2,291.15,9.3
8,Mar Del Plata,AR,1555345055,56,55,-46.43,-67.52,287.639,9.86
9,Albany,US,1555344955,90,66,42.65,-73.75,285.15,9.3
10,Carnarvon,ZA,1555345093,12,26,-30.97,22.13,291.539,1.86
11,Ilulissat,GL,1555339800,75,86,69.22,-51.1,272.15,5.1
12,Rio Grande,BR,1555340400,20,54,-32.03,-52.1,300.15,7.2
13,Kiunga,PG,1555345097,76,92,-6.12,141.3,297.339,0.71
14,Daan,YE,1555345098,20,56,17,43.43,301.989,1.71
15,Temiscaming,CA,1555344616,90,67,46.72,-79.1,274.82,7.7
16,Aswan,EG,1555340400,88,16,24.09,32.9,307.15,2.6
17,Avarua,CK,1555344000,0,88,-21.21,-159.78,300.15,2.6
18,Veisiejai,LT,1555340400,75,21,54.1,23.7,283.15,5
19,Verkhniy Baskunchak,KZ,1555345108,92,59,48.23,46.72,291.339,6.61
20,Katobu,ID,1555345109,88,100,-4.94,122.53,299.589,1.71
21,Busselton,AU,1555344949,68,46,-33.64,115.35,291.48,11.36
22,Cairns,AU,1555344799,40,78,-16.92,145.77,297.15,3.6
23,Kapaa,US,1555344986,90,64,22.08,-159.32,296.15,9.8
25,North Bend,US,1555344966,40,87,43.41,-124.22,279.82,3.6
26,Severo-Kurilsk,RU,1555345116,76,95,50.68,156.12,272.689,2.36
27,Kaliganj,BD,1555345117,32,74,23.41,89.13,301.689,1.61
28,Kavaratti,IN,1555345118,0,99,10.57,72.64,303.739,2.41
29,Hobart,AU,1555345094,0,81,-42.88,147.33,288.15,3.1
30,Porvoo,FI,1555345052,0,34,60.4,25.66,284.26,3.6
31,Saskylakh,RU,1555345122,76,72,71.97,114.09,255.639,1.31
33,Buraydah,SA,1555344000,0,23,26.33,43.97,303.15,2.6
34,Springfield,US,1555345116,1,39,37.22,-93.29,292.15,3.6
35,Bredasdorp,ZA,1555344915,12,59,-34.53,20.04,290.15,2.1
36,Norman Wells,CA,1555340400,75,67,65.28,-126.83,265.15,6.2
37,Meulaboh,ID,1555345133,56,100,4.14,96.13,301.639,0.41
38,Bluff,AU,1555345134,0,71,-23.58,149.07,289.489,3.16
39,Todos Santos,MX,1555345014,40,43,23.45,-110.23,297.59,3.46
40,Kidal,ML,1555345137,0,12,18.44,1.41,308.989,1.81
41,Port Elizabeth,US,1555345136,75,54,39.31,-74.98,289.26,10.3
42,Atuona,PF,1555345139,48,100,-9.8,-139.03,301.289,4.91
43,Tommot,RU,1555345141,32,63,58.97,126.27,263.139,2.11
44,Rocha,UY,1555345142,80,70,-34.48,-54.34,293.489,6.16
45,Cherskiy,RU,1555345143,0,58,68.75,161.3,266.039,3.06
46,Leningradskiy,RU,1555344984,48,87,69.38,178.42,256.589,2.21
47,Hualmay,PE,1555345146,8,70,-11.1,-77.61,296.889,2.06
48,Lagoa,PT,1555345028,20,68,37.14,-8.45,295.93,9.8
49,Lompoc,US,1555345122,90,81,34.64,-120.46,285.93,1.21
50,Istok,PL,1555344955,0,31,52.85,23.44,284.26,2.68
51,Vanimo,PG,1555345151,88,100,-2.67,141.3,301.639,7.81
52,Kirakira,SB,1555345026,36,100,-10.46,161.92,301.739,4.81
53,Lebu,ET,1555345153,8,46,8.96,38.73,293.889,3.71
54,Southbridge,US,1555345146,90,87,42.08,-72.03,291.48,4.6
55,San Patricio,PY,1555345156,12,63,-26.98,-56.83,304.489,1.51
56,Santander,PH,1555340400,20,83,9.42,123.33,299.15,4.51
57,Geraldton,CA,1555340400,20,23,49.72,-86.95,277.15,1.16
58,Ulladulla,AU,1555345009,12,100,-35.36,150.48,287.04,3.6
59,Port Alfred,ZA,1555344697,24,92,-33.59,26.89,289.82,1.34
60,Tiksi,RU,1555345162,68,77,71.64,128.87,260.239,1.51
61,Ostrovnoy,RU,1555345109,88,93,68.05,39.51,274.439,12.96
62,Yellowknife,CA,1555344970,90,73,62.45,-114.38,267.15,4.6
64,Coquimbo,CL,1555340400,0,77,-29.95,-71.34,289.15,4.1
65,Saint Anthony,US,1555344904,90,74,43.97,-111.68,278.15,6.7
66,Saldanha,PT,1555345169,80,94,41.42,-6.55,284.289,4.21
67,Presidente Olegario,BR,1555345011,92,100,-18.42,-46.42,298.15,1.34
68,Pudozh,RU,1555345174,0,88,61.81,36.54,278.639,5.11
69,Saint-Augustin,FR,1555345122,0,42,44.83,-0.61,294.15,5.1
70,Yuzhou,CN,1555340400,0,48,34.16,113.47,289.15,2
71,Mount Gambier,AU,1555340400,75,40,-37.83,140.78,293.15,4.6
72,Mataura,NZ,1555344606,92,95,-46.19,168.86,283.15,1.36
73,Constitucion,MX,1555344616,90,23,23.99,-104.67,291.48,1.91
74,East London,ZA,1555344000,0,77,-33.02,27.91,290.15,3.6
75,Lesogorsk,RU,1555345183,0,61,56.05,99.51,266.889,1.16
76,Cockburn Town,TC,1555345144,0,96,21.46,-71.14,299.539,8.71
77,Mount Isa,AU,1555342200,0,43,-20.73,139.49,296.15,2.6
78,Vaini,IN,1555340400,40,74,15.34,74.49,301.15,5.1
79,Husavik,CA,1555345167,68,99,50.56,-96.99,275.93,6.71
80,Tasiilaq,GL,1555343400,90,91,65.61,-37.64,276.15,6.7
81,Barrow,AR,1555345190,0,84,-38.31,-60.23,289.789,4.16
82,Chicama,PE,1555340400,20,83,-7.84,-79.15,294.15,5.1
83,Torbay,CA,1555345110,75,52,47.66,-52.73,279.82,5.7
84,Bundaberg,AU,1555344610,32,82,-24.87,152.35,292.59,2.6
86,Cabo San Lucas,MX,1555344967,20,64,22.89,-109.91,298.71,4.1
87,Karratha,AU,1555345198,0,91,-20.74,116.85,296.289,1.41
88,Margate,AU,1555345154,0,81,-43.03,147.26,288.15,3.1
89,Georgetown,GY,1555340400,75,70,6.8,-58.16,304.15,5.1
90,Hofn,IS,1555344000,90,93,64.25,-15.21,280.15,6.2
92,Sabang,PH,1555345207,56,92,13.72,123.58,298.989,2.71
93,Pevek,RU,1555345209,0,50,69.7,170.27,258.339,2.31
94,Bluefields,NI,1555344000,75,74,12.01,-83.77,303.15,2.1
95,Harper,US,1555345088,1,43,30.3,-99.24,295.15,5.7
96,Dikson,RU,1555345213,48,97,73.51,80.55,258.789,9.81
98,Faanui,PF,1555345216,24,100,-16.48,-151.75,301.539,6.46
99,Hasaki,JP,1555344741,0,43,35.73,140.83,284.15,4.1
100,Kaeo,NZ,1555344484,24,88,-35.1,173.78,285.93,1.41
101,Butaritari,KI,1555345219,76,100,3.07,172.79,300.289,6.61
104,Matay,EG,1555345223,92,33,28.42,30.79,296.289,8.86
105,Denpasar,ID,1555342200,20,83,-8.65,115.22,302.15,3.1
106,Salalah,OM,1555343400,0,58,17.01,54.1,302.15,1.5
107,Buala,SB,1555345227,56,99,-8.15,159.59,299.739,2.66
109,Clyde River,CA,1555340400,20,76,70.47,-68.59,253.15,8.2
111,Mahebourg,MU,1555345140,75,83,-20.41,57.7,300.15,3.6
112,Nacozari,MX,1555345216,32,70,25.34,-108.26,295.93,1.61
113,Olinda,EC,1555345019,75,78,-2.03,-79.75,301.48,3.6
114,Koutsouras,GR,1555344513,80,67,35.03,25.95,290.37,4.47
115,Vardo,US,1555345233,75,46,39.62,-77.74,284.26,14.4
117,Burdur,TR,1555343400,75,93,37.72,30.29,286.15,7.2
118,Beringovskiy,RU,1555345240,20,80,63.05,179.32,258.889,3.16
119,Bethel,US,1555343760,1,92,60.79,-161.76,271.15,2.1
120,Ahipara,NZ,1555345244,44,100,-35.17,173.16,285.939,1.51
122,Kibaya,RW,1555344728,75,77,-2.2,30.56,294.82,1
123,Xining,CN,1555345003,0,63,36.62,101.77,270.689,0.96
124,Hilo,US,1555345230,90,88,19.71,-155.08,295.93,2.6
125,Praia Da Vitoria,PT,1555344980,75,82,38.73,-27.07,288.15,13.86
126,Sao Gabriel Da Cachoeira,BR,1555345251,12,84,-0.13,-67.09,301.639,1.31
127,Isabela,PH,1555345252,0,78,10.2,122.99,298.889,0.71
128,Selma,US,1555344976,68,87,36.57,-119.61,291.48,0.81
129,Nome,US,1555345228,1,46,30.04,-94.42,297.04,3.1
130,Labytnangi,RU,1555345256,76,88,66.66,66.39,266.189,10.86
131,Jamestown,AU,1555345046,0,45,-33.21,138.6,289.889,2.66
132,Msanga,TZ,1555345258,20,36,-6.04,36.03,302.389,4.01
133,Fenelon Falls,CA,1555345203,90,93,44.54,-78.74,276.48,6.7
134,Port-Gentil,GA,1555344000,20,83,-0.72,8.78,301.15,3.1
135,Dayapan,PH,1555345018,20,66,13.94,120.92,303.15,2.1
137,Luau,CD,1555345265,8,65,-10.7,22.23,300.139,1.26
140,Nosy Varika,MG,1555345268,20,90,-20.58,48.53,301.239,2.76
141,Qaanaaq,GL,1555345270,36,100,77.48,-69.36,255.739,0.66
142,Ende,ID,1555345271,8,100,-8.84,121.65,300.689,2.21
143,Airai,TL,1555345272,32,83,-8.93,125.41,293.039,0.76
144,Camacha,PT,1555344000,20,52,33.08,-16.33,292.15,2.6
145,Puerto Escondido,MX,1555342860,5,54,15.86,-97.07,301.15,1.06
146,Marawi,PH,1555344981,0,86,8,124.29,297.59,2.68
147,Hithadhoo,MV,1555345028,64,100,-0.6,73.08,301.839,4.26
148,Igrim,RU,1555345278,88,80,63.19,64.42,273.789,3.86
149,Punta Arenas,CL,1555344747,40,66,-53.16,-70.91,284.15,12.9
150,Puerto Ayora,EC,1555344967,20,74,-0.74,-90.35,303.15,4.6
151,Polovinnoye,RU,1555345282,0,72,54.79,65.99,272.389,1.51
152,Berlevag,NO,1555343400,75,80,70.86,29.09,277.15,11.8
153,Popondetta,PG,1555345285,92,98,-8.77,148.24,292.789,0.86
155,Byron Bay,AU,1555345276,80,77,-28.65,153.62,292.15,4.1
156,Leo,BF,1555345288,0,14,11.1,-2.1,314.539,3.86
157,Nanortalik,GL,1555345289,88,92,60.14,-45.24,274.239,3.96
158,Castro,CL,1555340400,0,76,-42.48,-73.76,284.15,3.1
159,Pacific Grove,US,1555345216,1,71,36.62,-121.92,287.04,3.6
161,Honiara,SB,1555340400,75,88,-9.43,159.96,298.15,0.86
162,Katsuura,JP,1555344664,20,71,33.93,134.5,283.15,2.6
163,Ouesso,CG,1555345298,92,77,1.61,16.05,300.739,1.56
164,Yangambi,CD,1555345299,24,81,0.77,24.47,300.489,1.31
165,Kaseda,JP,1555345300,0,100,31.42,130.32,290.539,4.36
166,Bosaso,SO,1555345301,8,95,11.28,49.18,301.939,5.66
167,Wahiawa,US,1555345139,20,72,21.5,-158.02,296.15,1.5
168,Sogne,NO,1555345227,0,39,58.08,7.82,281.48,5.1
169,Misratah,LY,1555345129,0,61,32.38,15.09,293.239,10.61
170,Lafia,NG,1555345307,0,78,8.5,8.51,304.639,3.01
171,Plettenberg Bay,ZA,1555345309,92,100,-34.05,23.37,290.089,3.46
172,Yuxia,CN,1555340400,0,76,34.06,108.63,285.15,3
173,Peru,US,1555345303,1,65,41.33,-89.13,281.48,4.1
174,Sabancuy,MX,1555345313,24,98,18.97,-91.18,299.639,5.81
175,Hambantota,LK,1555341000,90,100,6.12,81.12,298.15,0.5
176,Novouzensk,RU,1555345315,12,63,50.46,48.14,287.139,4.06
177,Chuy,UY,1555345306,36,82,-33.69,-53.46,295.189,7.06
178,Narsaq,GL,1555343400,75,65,60.91,-46.05,278.15,3.1
179,Saint-Philippe,CA,1555345293,90,100,45.36,-73.48,279.82,1.5
180,Pangnirtung,CA,1555340400,20,77,66.15,-65.72,256.15,4.6
182,Ust-Ordynskiy,RU,1555344000,40,100,52.8,104.75,271.15,4
183,Makakilo City,US,1555345139,1,72,21.35,-158.09,296.15,3.71
185,Norrtalje,SE,1555345308,0,34,59.76,18.7,283.15,5.7
186,Thompson,CA,1555340400,75,48,55.74,-97.86,278.15,3.1
187,Pokosnoye,RU,1555345329,0,65,55.53,101.05,265.689,1.06
188,Pochutla,MX,1555345000,5,45,15.74,-96.47,304.26,0.61
189,Kalianget,ID,1555342200,20,83,-7.35,109.91,300.15,0.51
190,Victor Harbor,AU,1555345291,0,35,-35.55,138.62,295.37,3.6
191,Isla Vista,US,1555345333,90,87,34.41,-119.86,288.15,3.1
192,Kisangani,CD,1555345335,12,81,0.52,25.21,300.489,1.16
193,Awbari,LY,1555345336,0,17,26.59,12.77,299.239,2.36
195,Teruel,ES,1555342200,0,45,40.34,-1.11,292.15,8.2
196,Whitehorse,CA,1555345186,75,68,60.72,-135.06,273.15,1
197,Hirara,JP,1555345341,0,100,24.8,125.28,296.039,7.46
198,Waipawa,NZ,1555344376,68,87,-39.94,176.59,281.48,0.45
199,Bambous Virieux,MU,1555345140,75,83,-20.34,57.76,300.15,3.6
200,Jardim,BR,1555345345,0,76,-21.48,-56.15,303.339,3.46
201,Yulara,AU,1555340400,40,17,-25.24,130.99,302.15,3.1
202,Port Hardy,CA,1555340400,90,93,50.7,-127.42,277.15,1
203,Ribeira Grande,PT,1555344000,75,87,38.52,-28.7,288.15,12.9
204,Pandan,PH,1555345350,0,98,11.72,122.09,301.239,5.36
205,Charters Towers,AU,1555345352,12,88,-20.07,146.27,292.389,3.31
206,San Policarpo,PH,1555345353,56,99,12.18,125.51,297.989,3.11
207,Aktanysh,RU,1555345354,32,49,55.72,54.06,278.339,4.36
208,Bayir,TR,1555343400,75,82,37.27,28.22,287.15,4.6
210,Poum,MK,1555344000,75,66,41.28,20.71,283.15,4.1
211,Millerovo,RU,1555345360,92,96,48.92,40.39,285.889,5.51
212,Mamallapuram,IN,1555342429,20,74,12.63,80.17,303.15,3.1
213,Hargeysa,SO,1555345363,64,59,9.56,44.06,297.039,2.56
214,Troitskiy,RU,1555345217,75,93,45.15,38.14,287.59,8
215,Impfondo,CD,1555345369,92,100,1.62,18.06,295.489,1.61
217,Kruisfontein,ZA,1555345371,68,78,-34,24.73,289.039,2.61
218,Son La,VN,1555345373,24,95,21.32,103.9,293.289,0.81
219,Tual,ID,1555345374,48,100,-5.67,132.75,300.989,3.81
220,Mpanda,TZ,1555345375,20,73,-6.34,31.07,299.139,1.21
221,Lata,IN,1555345377,8,80,30.78,78.62,284.489,1.16
222,Tuatapere,NZ,1555345206,36,94,-46.13,167.69,283.15,1.16
223,Richards Bay,ZA,1555345379,100,96,-28.77,32.06,294.389,4.96
225,Sitka,US,1555344931,0,57,37.17,-99.65,289.82,1.31
226,Udachnyy,RU,1555340400,0,45,66.42,112.4,257.15,2
228,Tura,IN,1555345386,0,95,25.52,90.21,293.239,2.31
232,Chokurdakh,RU,1555345391,8,78,70.62,147.9,262.289,3.36
233,Wajima,JP,1555345392,0,92,37.4,136.9,279.639,2.41
234,Luderitz,NA,1555345393,0,70,-26.65,15.16,290.489,8.21
235,Berdigestyakh,RU,1555345394,88,81,62.1,126.7,267.489,2.96
236,Dourbali,TD,1555345396,24,17,11.81,15.86,313.939,3.11
237,Dongying,CN,1555345397,48,48,37.43,118.67,286.539,4.11
238,Delvada,IN,1555345398,32,25,24.01,72.98,305.139,6.11
239,Faya,SA,1555344000,40,68,18.39,42.45,294.15,3.6
240,Venice,US,1555345342,1,60,27.1,-82.45,299.26,6.7
242,Montanha,BR,1555345404,68,100,-18.13,-40.37,298.989,1.56
243,Kokopo,PG,1555345405,76,100,-4.34,152.27,298.539,1.51
245,Los Alamos,US,1555345101,1,20,35.88,-106.3,288.71,2.1
246,Kahului,US,1555345222,40,64,20.89,-156.47,294.15,2.6
247,Vohibinany,MG,1555345410,80,75,-17.35,49.03,299.639,1.41
249,Garden City,US,1555345364,90,76,40.73,-73.63,289.82,12.3
250,Arraial Do Cabo,BR,1555340400,40,54,-22.97,-42.02,301.15,5.1
251,Conceicao Da Barra,BR,1555345415,32,97,-18.59,-39.73,299.789,2.81
252,Gunjur,GM,1555344000,0,37,13.18,-16.76,303.15,6.7
253,Ancud,CL,1555340400,0,76,-41.87,-73.83,284.15,3.1
254,Deputatskiy,RU,1555345418,76,88,69.3,139.9,262.589,1.26
255,Ucluelet,CA,1555344626,90,93,48.94,-125.55,280.37,2.6
256,Beian,NO,1555345205,0,66,63.66,9.57,283.15,6.2
257,Nikolskoye,RU,1555345236,0,34,59.7,30.79,283.15,4
258,Rio Gallegos,AR,1555340400,20,50,-51.62,-69.22,285.15,5.1
259,Tautira,PF,1555344743,20,78,-17.73,-149.15,299.15,1.5
260,Poso,ID,1555345426,76,100,-1.4,120.75,300.039,0.86
261,Yar-Sale,RU,1555345206,80,93,66.83,70.83,269.339,3.86
262,Provideniya,RU,1555345428,0,100,64.42,-173.23,265.039,4.61
264,Mana,RS,1555344000,75,87,43.52,20.24,284.15,1.5
265,Victoria,BN,1555342200,75,83,5.28,115.24,301.15,1
266,Pacasmayo,PE,1555345434,12,96,-7.4,-79.57,292.789,2.56
267,Somoto,NI,1555345206,0,79,13.48,-86.58,295.93,2.68
268,Chadiza,ZM,1555345436,24,44,-14.06,32.43,302.289,2.56
269,Kindu,CD,1555345437,24,70,-2.95,25.92,301.489,1.01
270,Gangapur,IN,1555345438,48,56,19.7,75.01,298.589,3.91
271,Kaitangata,NZ,1555345436,92,90,-46.28,169.85,282.59,0.89
272,Aleppo,SY,1555345441,88,43,36.2,37.17,291.989,6.26
273,Bonavista,CA,1555344933,64,87,48.65,-53.11,274.26,1.79
274,Inongo,CD,1555345443,44,83,-1.93,18.29,300.739,1.41
275,New Norfolk,AU,1555345394,0,81,-42.78,147.06,288.15,3.1
277,Imeni Stepana Razina,RU,1555345451,0,52,54.89,44.3,280.789,2.61
278,Hamilton,BM,1555344096,40,83,32.3,-64.78,297.59,7.2
279,Atagay,RU,1555345456,24,55,55.1,99.39,268.789,1.56
280,Puerto Baquerizo Moreno,EC,1555344000,75,94,-0.9,-89.6,300.15,3.1
281,Corrales,CO,1555345459,8,82,5.83,-72.84,289.489,1.11
282,Nabire,ID,1555345460,88,97,-3.36,135.5,293.289,0.71
283,Groton,US,1555345449,90,77,42.61,-71.57,290.93,4.6
284,Mogadishu,SO,1555345190,0,97,2.04,45.34,302.739,5.96
285,Dafeng,CN,1555345463,76,55,33.2,120.46,284.339,5.91
286,Cutro,IT,1555339800,20,71,39.04,16.98,287.15,7.2
288,Santa Vitoria Do Palmar,BR,1555345467,36,82,-33.52,-53.37,295.189,7.06
289,Bachaquero,VE,1555345468,88,75,9.96,-71.12,303.289,1.71
290,Mnogovershinnyy,RU,1555345469,8,73,53.94,139.92,273.489,2.31
291,Bugene,TZ,1555345470,92,98,-1.59,31.14,293.039,0.96
292,Mlimba,TZ,1555345472,68,82,-8.78,35.81,299.489,1.41
293,Orlik,RU,1555345473,80,81,52.51,99.83,268.639,0.41
294,Grindavik,IS,1555345320,75,87,63.84,-22.43,283.71,11.3
295,Canutama,BR,1555345285,0,79,-6.53,-64.38,303.489,1.51
297,Ornskoldsvik,SE,1555343400,0,34,63.29,18.72,282.15,2.6
298,Kodiak,US,1555345324,1,48,39.95,-94.76,290.93,7.2
299,Klitos,GR,1555345404,92,83,40.43,21.86,286.48,1.56
301,Salme,TD,1555345482,76,18,13.3,19.7,311.789,4.91
302,Kungurtug,RU,1555345483,76,56,50.6,97.53,276.239,3.81
303,Shahe,CN,1555345485,92,33,36.85,114.5,292.139,8.56
304,New Iberia,US,1555345213,1,49,30,-91.82,295.15,1.5
305,Manzhouli,CN,1555345487,0,47,49.6,117.43,277.989,2.91
306,Valle De Allende,MX,1555345488,8,22,26.94,-105.39,290.889,1.86
307,Dukat,RS,1555345397,92,71,42.44,22.31,283.71,0.41
308,Hami,CN,1555345491,0,35,42.84,93.51,287.289,3.01
309,Conceicao Do Araguaia,BR,1555345209,8,88,-8.26,-49.26,302.389,2.01
310,Talnakh,RU,1555340400,0,83,69.49,88.39,248.15,2
311,Nevsehir,TR,1555343400,75,93,38.62,34.71,282.04,1
312,La Palma,CO,1555345506,80,92,5.36,-74.39,295.239,0.96
313,San Cristobal,EC,1555344986,75,68,-0.39,-78.55,291.15,1.5
314,Lavrentiya,RU,1555345508,0,89,65.58,-170.99,259.789,3.01
315,Hohhot,CN,1555340400,0,33,40.81,111.65,281.15,2
318,Opuwo,NA,1555345516,56,32,-18.06,13.84,303.039,2.96
319,Pakxan,LA,1555345517,64,92,18.39,103.66,297.739,0.86
320,Oktyabrskoye,RU,1555345230,0,49,56.73,85.44,272.04,3
321,Dudinka,RU,1555340400,0,83,69.41,86.18,248.15,2
322,Salinopolis,BR,1555345521,88,100,-0.61,-47.36,300.489,3.16
323,Shingu,JP,1555345522,0,100,33.72,135.99,286.089,3.91
324,Hit,IQ,1555345434,20,20,33.64,42.83,301.389,3.51
325,Key Largo,US,1555345272,75,62,25.09,-80.45,304.26,6.2
326,Gazanjyk,TM,1555345526,76,59,39.24,55.52,289.489,3.26
327,Semnan,IR,1555344000,0,12,35.58,53.39,293.15,3.1
328,Soderhamn,SE,1555345325,0,39,61.3,17.06,279.82,2.24
329,Shahr-E Babak,IR,1555345529,12,31,30.12,55.12,286.439,6.36
330,Pangkalanbuun,ID,1555345531,76,91,-2.68,111.62,298.989,1.21
331,Pisco,PE,1555345009,0,30,-13.71,-76.2,297.04,4.1
332,Isangel,VU,1555340400,75,88,-19.55,169.27,297.15,1.5
333,Marsaxlokk,MT,1555345511,20,59,35.84,14.54,289.15,8.2
334,Jutai,BR,1555345536,68,87,-1.71,-47.89,301.089,1.46
335,Comodoro Rivadavia,AR,1555344000,0,36,-45.87,-67.48,289.15,11.3
336,Portland,US,1555345507,40,81,45.52,-122.67,282.59,1.41
337,Tuktoyaktuk,CA,1555340400,20,77,69.44,-133.03,255.15,6.7
338,Vila Franca Do Campo,PT,1555345481,75,82,37.72,-25.43,289.15,13.9
339,Yasothon,TH,1555345539,32,61,15.8,104.15,306.48,2.71
340,Vestmanna,FO,1555343460,75,81,62.16,-7.17,279.15,11.3
341,Leh,IN,1555345544,44,83,34.16,77.58,264.289,0.61
343,Cidreira,BR,1555345547,76,83,-30.17,-50.22,299.639,4.11
344,Nokaneng,BW,1555345548,68,24,-19.66,22.19,306.189,0.61
345,Kiruna,SE,1555343400,0,60,67.86,20.23,277.15,2.6
346,Khandyga,RU,1555345550,36,67,62.65,135.58,262.889,1.66
347,Caravelas,BR,1555345551,44,100,-17.73,-39.27,300.789,2.86
348,Bloemhof,ZA,1555345553,36,48,-27.65,25.61,297.239,6.61
349,Souillac,FR,1555345539,0,22,45.6,-0.6,292.15,6.2
350,Bulgan,MN,1555345555,12,32,48.81,103.53,282.989,3.86
351,Sehithwa,BW,1555345556,32,28,-20.47,22.7,304.989,1.91
352,San Andres,PH,1555345558,12,100,13.32,122.68,301.489,3.56
353,Sao Felix Do Xingu,BR,1555345337,20,77,-6.64,-51.99,302.289,1.31
354,Kavieng,PG,1555345560,92,100,-2.57,150.8,300.639,1.66
355,Lebedyan,RU,1555342200,75,66,53.01,39.13,283.15,7
356,Dingle,PH,1555345563,20,72,11,122.67,300.139,3.76
357,Wasilla,US,1555345331,1,74,61.58,-149.44,274.26,1.76
358,Bontang,ID,1555345565,36,89,0.12,117.47,302.089,4.71
359,Uthal,PK,1555345566,56,69,25.81,66.62,295.639,4.96
360,Elk River,US,1555345474,90,56,45.3,-93.57,282.15,4.26
362,Saryg-Sep,RU,1555345570,76,84,51.49,95.55,276.789,1.06
363,Nivala,FI,1555345505,0,50,63.93,24.96,280.93,2.24
364,Plouzane,FR,1555345386,92,66,48.38,-4.62,282.59,6.7
366,Lasa,CY,1555345007,40,68,34.92,32.53,291.15,4.1
367,Kangaatsiaq,GL,1555345576,36,100,68.31,-53.46,269.789,6.36
368,Half Moon Bay,US,1555345530,40,87,37.46,-122.43,286.48,2.1
369,Touros,BR,1555344000,40,66,-5.2,-35.46,304.15,4.6
370,Ukiah,US,1555345469,75,70,39.15,-123.21,285.37,1.5
371,Parincea,RO,1555344000,40,40,46.49,27.11,284.26,8.7
372,Ruteng,ID,1555345582,12,96,-8.61,120.46,295.839,1.36
373,Coahuayana,MX,1555345583,0,23,18.62,-100.35,298.239,1.06
374,Sunrise Manor,US,1555345270,75,34,36.21,-115.07,295.15,4.6
375,Marystown,CA,1555345586,80,82,47.17,-55.16,277.639,2.96
376,Payson,US,1555345566,90,81,40.04,-111.73,283.15,3.1
377,Saint-Pierre,FR,1555345325,0,42,48.95,4.24,290.37,7.7
379,Lourdes,SV,1555345540,20,51,13.73,-89.37,307.15,4.6
380,Baruun-Urt,MN,1555345592,0,28,46.68,113.28,278.839,4.51
381,Kununurra,AU,1555342200,0,73,-15.77,128.74,298.15,1
382,Locri,IT,1555345509,40,62,38.24,16.26,288.15,4.1
383,El Seibo,DO,1555344000,75,70,18.76,-69.04,303.15,4.1
384,Jingdezhen,CN,1555345597,92,97,29.29,117.2,288.439,1.86
385,Borba,PT,1555340400,75,52,38.81,-7.46,293.15,7.2
386,Acari,BR,1555345600,68,48,-6.44,-36.64,304.389,2.21
387,Swift Current,CA,1555340400,40,70,50.29,-107.8,277.15,5.1
388,Cruzeiro Do Oeste,BR,1555345603,0,77,-23.78,-53.07,300.939,4.46
389,Daru,SL,1555345604,8,59,7.99,-10.85,307.139,2.06
390,Biltine,TD,1555345605,88,17,14.53,20.93,309.389,2.91
391,Xinzhou,CN,1555345606,68,57,38.41,112.73,283.989,2.11
392,Black Diamond,CA,1555345591,40,47,50.69,-114.23,279.26,2.6
394,Avera,US,1555345561,1,41,33.19,-82.53,291.15,7.7
395,Mollendo,PE,1555345612,0,61,-17.03,-72.02,296.289,1.66
396,Codrington,AU,1555345574,76,93,-28.95,153.24,290.15,0.5
397,Muisne,EC,1555344000,75,83,0.61,-80.02,302.15,2.1
398,Gemena,CD,1555345616,68,92,3.25,19.78,296.339,1.16
399,Sereflikochisar,TR,1555345617,88,100,38.94,33.54,282.139,1.81
400,Storm Lake,US,1555345503,1,46,42.64,-95.21,285.37,6.7
401,Caracuaro,MX,1555345619,12,28,19.01,-101.13,294.739,1.41
402,Palmer,AU,1555345581,0,35,-34.85,139.16,295.37,3.6
403,Vestmannaeyjar,IS,1555344000,90,100,63.44,-20.27,280.15,10.3
404,Meadow Lake,CA,1555344000,90,80,54.13,-108.44,278.15,6.2
405,Luanda,AO,1555344000,75,74,-8.83,13.24,302.15,4.1
406,Viedma,AR,1555345626,0,41,-40.81,-62.99,290.839,2.11
407,Sao Joao Da Barra,BR,1555344000,75,65,-21.64,-41.05,301.15,2.1
408,Presidencia Roque Saenz Pena,AR,1555345629,0,90,-26.79,-60.44,300.639,2.11
409,Solnechnyy,RU,1555345630,36,51,50.72,136.64,277.489,2.86
410,Bushehr,IR,1555344000,0,49,28.97,50.84,298.15,2.1
411,Matara,PE,1555344000,40,58,-13.74,-72.9,285.15,1.06
412,Linhares,BR,1555345637,44,80,-19.38,-40.06,300.139,2.71
413,Puerto Del Rosario,ES,1555344000,20,73,28.5,-13.86,294.15,4.1
414,Chino,JP,1555345526,0,46,35.99,138.16,280.37,1.34
415,Sampit,ID,1555345640,24,93,-2.54,112.95,297.689,1.31
417,Fairbanks,US,1555345504,1,86,64.84,-147.72,273.15,1.5
418,Scarborough,GB,1555345625,12,76,54.28,-0.41,283.15,6.2
419,Naron,ES,1555345272,40,76,43.52,-8.15,287.15,5.7
420,Halifax,CA,1555345565,90,100,44.65,-63.58,280.37,7.7
421,Emerald,AU,1555345130,90,59,-23.53,148.16,291.15,2.6
422,San Blas,MX,1555343160,75,46,21.54,-105.29,295.15,1.5
424,La Ronge,CA,1555340400,90,93,55.1,-105.3,275.15,2.6
425,Tagusao,PH,1555345655,0,89,9.19,117.81,300.039,1.51
426,Diphu,IN,1555345656,92,97,25.84,93.44,291.889,1.21
427,Poysdorf,AT,1555345653,0,30,48.67,16.63,288.71,4.1
428,Grand Gaube,MU,1555345439,75,83,-20.01,57.66,300.15,3.6
429,Mehamn,NO,1555343400,75,91,71.03,27.85,277.15,9.3
430,Bosobolo,CD,1555345661,36,80,4.19,19.88,300.239,4.56
431,Dunedin,NZ,1555345450,8,79,-45.87,170.5,283.71,4.92
432,Rudnyy,KZ,1555342200,0,50,52.96,63.12,272.15,2
433,Araguaina,BR,1555345591,8,82,-7.19,-48.21,303.039,3.11
434,Lucea,JM,1555344095,20,70,18.44,-78.17,302.15,6.2
435,Cabedelo,BR,1555344000,20,52,-6.97,-34.84,305.15,3.6
436,Mitchell,US,1555345504,20,69,43.71,-98.03,280.37,4.6
437,La Rioja,AR,1555345669,92,87,-29.41,-66.86,293.889,4.11
438,Sur,OM,1555345671,0,88,22.57,59.53,298.939,5.86
439,Pontassieve,IT,1555345636,20,48,43.78,11.44,290.93,3.6
440,Quatre Cocos,MU,1555345439,75,83,-20.21,57.76,300.15,3.6
441,Gawler,AU,1555345615,12,39,-34.6,138.75,295.37,3.1
442,Hengelo,NL,1555345426,0,29,52.27,6.79,290.37,6.7
443,Torrevieja,ES,1555345650,20,82,37.98,-0.68,296.48,4.1
444,Arklow,IE,1555344994,75,70,52.79,-6.14,282.15,4.6
445,Dicabisagan,PH,1555345679,48,100,17.08,122.42,297.939,2.56
446,Dores Do Indaia,BR,1555345680,88,92,-19.46,-45.6,296.539,2.06
447,Fayaoue,NC,1555345682,24,100,-20.65,166.53,299.089,7.71
448,Ituporanga,BR,1555345521,0,85,-27.41,-49.6,304.82,4.47
449,De Aar,ZA,1555345684,0,16,-30.65,24.01,293.339,4.01
450,Taitung,TW,1555345685,48,100,22.76,121.15,293.289,4.76
451,Fortuna,ES,1555345650,0,52,38.18,-1.13,297.15,3.1
452,Saint Paul,US,1555345613,90,45,44.95,-93.1,282.15,3.1
453,Iskateley,RU,1555345689,56,84,67.68,53.15,267.039,4.36
454,Mareeba,AU,1555345400,40,88,-16.99,145.42,295.15,3.1
455,Carutapera,BR,1555345680,92,90,-1.2,-46.02,301.039,2.41
456,Flinders,AU,1555345542,40,100,-34.58,150.85,287.59,4.1
457,Pedras De Fogo,BR,1555344000,20,52,-7.4,-35.11,305.15,3.6
458,Coihaique,CL,1555344000,75,66,-45.58,-72.07,285.15,2.6
459,Nagua,DO,1555344000,20,74,19.37,-69.85,303.15,3.1
460,Tsabong,BW,1555345699,0,34,-26.02,22.4,300.789,3.71
461,Kitimat,CA,1555340400,75,85,54.02,-128.69,274.15,2.1
462,Broome,GB,1555345695,40,71,52.47,1.45,284.82,6.2
463,Port Lincoln,AU,1555345702,0,95,-34.72,135.86,291.189,3.36
464,Adrar,DZ,1555340400,0,9,27.87,-0.29,305.15,3.1
465,Georgiyevka,RU,1555345705,92,94,52.25,40.45,282.039,6.41
466,San Jeronimo,PE,1555344000,40,58,-13.65,-73.37,285.15,1.06
467,Nizwa,OM,1555345707,0,61,22.93,57.53,292.539,1.21
468,Esperance,TT,1555345006,40,52,10.24,-61.45,305.15,7.2
469,Naze,NG,1555345710,44,74,5.43,7.07,304.789,3.66
471,Loukhi,RU,1555345712,0,61,66.08,33.04,278.639,3.91
472,Yining,CN,1555345713,100,97,29.04,114.56,287.539,0.71
473,Srednekolymsk,RU,1555345715,0,82,67.46,153.71,271.039,2.76
474,Road Town,VG,1555345346,75,65,18.42,-64.62,301.15,4.6
475,Takoradi,GH,1555345501,0,94,4.89,-1.75,302.089,2.21
476,Koumac,NC,1555345718,0,93,-20.56,164.28,295.439,2.56
477,Wajir,KE,1555345720,44,31,1.75,40.07,308.739,3.86
478,Nioro,GM,1555345721,0,19,13.79,-15.05,313.389,3.01
479,High Prairie,CA,1555345722,80,92,55.43,-116.48,274.489,1.71
480,Badiraguato,MX,1555345649,75,56,25.36,-107.55,298.15,2.6
481,Mingshui,CN,1555345725,92,97,22.81,109.89,293.639,1.91
482,Tiznit,MA,1555345726,24,65,29.7,-9.73,296.239,2.26
483,The Pas,CA,1555344000,90,93,53.82,-101.24,275.15,5.7
484,Zilupe,RU,1555345729,92,50,56.39,28.12,280.539,6.56
485,Necochea,AR,1555345730,0,86,-38.55,-58.74,290.389,2.56
486,Kekri,IN,1555345731,80,71,25.97,75.15,295.489,3.56
487,Baijiantan,CN,1555345721,0,27,45.63,85.18,287.889,1.11
488,Mitsamiouli,KM,1555345734,20,92,-11.38,43.28,302.539,1.11
490,Sinnamary,GF,1555345736,92,100,5.38,-52.96,299.339,4.31
491,Pakaur,IN,1555345737,24,58,24.64,87.92,302.339,4.16
492,Portobelo,PA,1555344905,40,46,9.55,-79.65,307.15,3.6
493,Iqaluit,CA,1555344722,75,65,63.75,-68.52,260.15,5.7
494,Sept-Iles,CA,1555344915,90,82,50.2,-66.38,273.71,5.1
495,Eureka,US,1555345672,90,87,40.8,-124.16,282.59,1.5
496,Chara,GR,1555345403,40,71,39.42,22.43,286.48,6.2
497,Bathsheba,BB,1555344000,75,74,13.22,-59.52,300.15,7.2
498,Bubaque,GW,1555345746,0,85,11.28,-15.83,302.789,5.46
499,South River,CA,1555345712,75,42,47.54,-53.27,281.15,4.1
500,Maniitsoq,GL,1555345749,76,95,65.42,-52.9,273.739,5.16
501,Montepuez,MZ,1555345750,48,68,-13.13,39,301.739,3.91
502,Prince Rupert,CA,1555340400,1,86,54.32,-130.32,277.15,2.1
503,Tessalit,ML,1555345753,0,13,20.2,1.01,307.139,1.81
504,Florianopolis,BR,1555345689,20,65,-27.6,-48.55,304.82,4.6
505,Sokolo,ML,1555345755,0,17,14.74,-6.12,312.089,3.56
506,Kasane,BW,1555344000,0,54,-17.8,25.16,301.15,0.5
509,Axim,GH,1555345760,0,98,4.87,-2.24,301.139,3.11
510,Moyamba,SL,1555345761,8,89,8.16,-12.43,302.389,2.51
511,Zvolen,SK,1555345748,0,26,48.58,19.13,289.15,1.5
512,Kloulklubed,PW,1555343400,75,83,7.04,134.26,299.15,2.1
513,Muros,ES,1555345471,40,67,42.77,-9.06,289.26,5.7
514,Sambava,MG,1555345766,36,100,-14.27,50.17,301.789,5.66
516,Sonari,IN,1555345769,88,99,27.03,95.02,292.489,1.16
517,Longyearbyen,NO,1555343400,90,92,78.22,15.63,270.15,5.1
518,Ponta Delgada,PT,1555345743,75,82,37.73,-25.67,289.15,13.9
519,Upernavik,GL,1555345772,56,84,72.79,-56.15,274.139,1.96
520,Taga,JP,1555345731,20,53,35.21,136.34,285.37,9.3
521,Guerrero Negro,MX,1555345776,24,97,27.97,-114.04,288.539,2.51
522,Kuryk,KZ,1555345777,8,61,43.18,51.68,289.689,3.96
523,Saint George,GR,1555345403,40,71,39.45,22.34,286.48,6.2
525,Dandong,CN,1555345781,0,69,40.12,124.37,279.039,2.31
526,Sungairaya,ID,1555345757,92,83,0.7,108.9,300.689,1.21
528,Mongo,CF,1555345784,32,68,4.83,22.92,301.539,1.66
529,Luena,AO,1555345786,32,73,-11.78,19.91,297.989,1.41
530,Chateau-Gontier,FR,1555345327,0,47,47.83,-0.7,290.15,5.1
531,Kieta,PG,1555345788,56,98,-6.22,155.63,299.339,1.86
532,Argoncilhe,PT,1555345706,40,72,41.02,-8.55,289.26,4.6
533,Muravlenko,RU,1555345790,80,89,63.79,74.5,269.789,7.11
534,Salisbury,GB,1555345778,0,34,51.07,-1.8,287.59,7.7
535,Biak,ID,1555345793,68,100,-0.91,122.88,298.539,1.51
536,Kanye,BW,1555345794,32,72,-24.98,25.34,292.989,2.61
537,Shache,CN,1555345795,0,35,38.42,77.24,292.139,4.21
538,Marienburg,DE,1555345721,0,70,52.12,9.98,288.15,4.6
540,Dinar,TR,1555343400,75,93,38.07,30.16,286.15,7.2
541,Yatou,CM,1555345800,8,93,3.63,9.81,302.489,6.46
542,Port Macquarie,AU,1555345505,76,82,-31.43,152.91,289.15,3.1
543,Norilsk,RU,1555344000,0,83,69.35,88.2,248.15,1
544,Jalu,LY,1555345806,0,25,29.03,21.55,291.792,2.32
545,Omboue,GA,1555345808,44,100,-1.57,9.26,300.642,1.92
546,Kantang,TH,1555340400,20,88,7.42,99.52,301.15,0.77
547,Klaksvik,FO,1555343460,75,81,62.23,-6.59,279.15,11.3
548,Gao,ML,1555345812,0,13,16.28,-0.04,308.242,2.77
549,Pierre,US,1555345454,1,97,44.37,-100.35,278.15,5.1
550,Healesville,AU,1555345806,68,48,-37.65,145.52,294.26,2.6
551,Ust-Nera,RU,1555345816,64,69,64.57,143.24,262.192,1.37
552,Kabale,UG,1555345817,20,100,-1.26,29.99,287.392,1.22
553,Colac,AU,1555345631,88,52,-38.34,143.59,293.15,0.45
554,La Paz,MX,1555345804,40,60,24.15,-110.32,295.37,4.1
555,Kilindoni,TZ,1555345821,0,95,-7.91,39.67,302.742,3.87
556,Suntar,RU,1555345822,32,70,62.16,117.65,258.942,1.72
558,Ganzhou,CN,1555345825,92,97,25.86,114.93,290.042,1.27
559,Khatanga,RU,1555345826,64,66,71.98,102.47,252.942,1.37
560,Yamada,JP,1555345804,20,75,36.58,137.08,280.93,1.5
562,Taoudenni,ML,1555345830,0,9,22.68,-3.98,303.192,2.97
563,Sao Miguel Do Araguaia,BR,1555345686,8,94,-13.28,-50.16,303.939,2.81
564,Padang,ID,1555344000,75,94,-0.92,100.36,298.15,1
565,Bara,NG,1555345834,0,41,10.41,10.6,305.642,1.22
566,Hede,SE,1555345815,0,34,60.45,15.49,283.71,4.1
567,Ciudad Bolivar,VE,1555345837,0,33,8.12,-63.55,309.942,5.67
568,Trinidad,UY,1555345838,92,43,-33.52,-56.9,294.342,7.32
569,Korsakovo,RU,1555345839,44,70,53.27,37.36,281.392,7.62
570,Anadyr,RU,1555344747,36,84,64.73,177.51,257.15,2
571,La Brea,TT,1555345006,40,52,10.24,-61.62,305.15,7.2
572,Diebougou,BF,1555345843,48,17,10.97,-3.25,311.742,2.57
574,Evensk,RU,1555345845,80,100,61.92,159.24,267.692,0.52
575,Curup,ID,1555345847,80,95,-3.47,102.53,295.392,0.62
576,Nizhniy Kuranakh,RU,1555345848,36,73,58.84,125.49,264.042,2.07
578,Conkal,MX,1555345831,75,61,21.08,-89.52,301.15,2.1
579,Sale,GB,1555345846,24,44,53.42,-2.32,287.59,5.1
580,Sorland,NO,1555343400,75,70,67.67,12.69,279.15,3.6
581,Shellbrook,CA,1555344000,90,86,53.22,-106.39,277.15,6.7
582,Oneonta,US,1555345854,92,94,42.45,-75.06,279.82,4.72
583,Srandakan,ID,1555345857,32,96,-7.94,110.25,296.792,1.22
584,Zhanaozen,KZ,1555345858,0,55,43.35,52.85,288.442,2.22
586,Coolum Beach,AU,1555345806,80,93,-26.53,153.09,289.26,0.45
587,Sechura,PE,1555345862,0,68,-5.56,-80.82,300.442,4.47
588,Khandbari,NP,1555345863,8,70,27.38,87.21,277.192,0.62
589,Cassilandia,BR,1555345864,36,94,-19.11,-51.73,300.042,1.97
590,Laguna,MX,1555342800,75,36,27.52,-110.01,297.15,2.6
591,Kimbe,PG,1555345867,92,100,-5.56,150.15,296.692,1.97
592,Destin,US,1555345833,1,42,30.39,-86.5,292.04,4.6
593,Eufaula,US,1555345835,1,44,31.89,-85.15,290.37,6.2
594,Madimba,CM,1555345871,44,63,4.42,9.93,302.592,3.72
595,Belmonte,PT,1555345820,0,74,40.36,-7.35,287.04,4.92
596,Sabha,LY,1555345874,0,26,27.03,14.43,292.642,2.42
598,Saint-Georges,CA,1555345824,100,95,46.12,-70.67,279.26,0.89
599,Ostersund,SE,1555343400,0,16,63.18,14.64,282.15,2.1
600,Chamrajnagar,IN,1555342200,20,25,11.92,76.95,304.15,6.2
601,Saint Pete Beach,US,1555345879,90,60,27.73,-82.74,297.59,3.1
602,Aykhal,RU,1555344000,0,45,65.95,111.51,257.15,2
603,Tacuarembo,UY,1555345796,68,67,-31.73,-55.98,297.739,5.06
604,Villa Maria,CO,1555344000,40,59,4.5,-74.09,300.15,1
605,Celestun,MX,1555345885,0,99,20.87,-90.4,298.792,8.42
606,Pauini,BR,1555345886,48,72,-7.71,-67,304.042,1.62
607,Bedele,ET,1555345741,12,63,8.46,36.35,296.989,1.16
609,Klyuchi,RU,1555345890,92,89,52.25,79.17,272.492,6.62
610,Kapuskasing,CA,1555340400,20,43,49.42,-82.43,273.15,6.7
611,Sobolevo,RU,1555345892,24,71,54.43,31.9,278.692,5.87
612,Kostino,BG,1555344000,75,47,41.7,25.3,287.15,3.6
613,Steamboat Springs,US,1555345664,90,37,40.48,-106.83,283.15,4.6
614,Quelimane,MZ,1555344000,20,83,-17.88,36.89,301.15,4.1
615,Bakel,SN,1555345897,0,13,14.9,-12.46,312.792,2.22
616,Ihosy,MG,1555345899,32,93,-22.4,46.13,290.292,0.42
617,Nenjiang,CN,1555345900,12,41,49.17,125.23,282.392,5.92
618,Port Hedland,AU,1555344000,40,88,-20.31,118.58,301.15,5.1
